"sort_number","site","Genus_species","Family","growthform","height","loght","Country","Site","lat","long","entered.by","alt","temp","diurn.temp","isotherm","temp.seas","temp.max.warm","temp.min.cold","temp.ann.range","temp.mean.wetqr","temp.mean.dryqr","temp.mean.warmqr","temp.mean.coldqr","rain","rain.wetm","rain.drym","rain.seas","rain.wetqr","rain.dryqr","rain.warmqr","rain.coldqr","LAI","NPP","hemisphere"
10147,27,"Darwinia_leptantha","Myrtaceae","Shrub",0.8,-0.096910013,"Australia","Kuringai Chase, Sydney",33.65,151.2,"Michelle",157,16.8,10,4.8,3.9,26.1,5.5,20.6,21.2,12.3,21.4,11.5,1283,157,63,29,450,208,385,279,4.14,1563,-1
8499,118,"Colocasia_esculenta","Araceae","Herb",0.6,-0.22184875,NA,"Marshall Islands",9,168,"Laura",2,27.7,4.8,8.8,0.2,30.6,25.2,5.4,27.9,27.5,27.9,27.5,2585,300,82,34,870,305,855,405,NA,NA,1
3140,178,"Apocynum_cannabinum","Apocynaceae","Herb",1.5,0.176091259,"USA","Indiana Dunes",41.617,-86.95,"Michelle",200,9.7,10.7,2.8,9.7,28.6,-9.5,38.1,21.6,-3.3,21.6,-3.3,976,104,44,23,299,165,299,165,3.26,1131,1
11039,54,"Dysphania_myriocephala","Amaranthaceae","Herb",0.1,-1,"Australia","Central Australia",23.8,133.833,"Michelle",553,20.9,16.3,4.8,6,37,3.6,33.4,28.1,14.8,28.1,12.8,278,37,9,42,109,35,109,42,1.32,756,-1
5215,123,"Bruguiera_gymnorrhiza","Rhizophoraceae","Tree",25,1.397940009,"Micronesia","Yap",9.5,138.167,"Laura",15,27.2,6.8,9.1,0.2,31.1,23.7,7.4,27.2,27.2,27.5,26.9,3031,368,144,31,1055,436,689,489,NA,NA,1
19989,103,"Miconia_aulocalyx","Melastomataceae",NA,3,0.477121255,"Peru","Manu",12.183,-70.55,"Angela",386,24.5,10.8,7.4,0.9,31.2,16.7,14.5,25.1,23.2,25.3,23.1,3015,416,99,45,1177,340,928,359,4.26,1405,-1
5326,69,"Burckella_billii","Sapotaceae","Tree",12,1.079181246,"Fiji","Viti Levu",17.8,178,"Laura",1108,19.3,6.3,5.8,1.5,25.3,14.6,10.7,21.1,17.4,21.1,17.3,3191,412,160,31,1136,521,1136,523,4.26,1795,-1
10229,106,"Dendrocnide_peltata","Urticaceae","Tree",30,1.477121255,"Australia","Christmas Island",10.417,105.667,"Laura",2,26.4,5,7.4,0.6,29.9,23.2,6.7,26.8,25.7,27.1,25.5,1704,309,16,66,806,92,659,135,4.51,2296,-1
12088,24,"Eucalyptus_leptophylla","Myrtaceae","Tree",6,0.77815125,"Australia","Adelaide - Brookfield Mallee",34.32,139.503,"Angela",95,16.2,13.3,5.1,4.6,30.7,4.8,25.9,13,21.9,22,10.5,272,30,15,23,83,49,50,79,2.14,773,-1
25144,30,"Pultenaea_daphnoides","Fabaceae - P","Shrub",3,0.477121255,"Australia","Kuringai - Diatreme",33.578,151.292,"Angela",188,17,9.7,4.8,3.8,26.1,5.9,20.2,21.4,12.6,21.5,11.9,1307,159,64,29,455,212,391,280,4.51,1435,-1
2925,107,"Annona_squamosa","Annonaceae","Shrub/Tree",6,0.77815125,"Papua New Guinea","Motupore Island",9.5,147.267,"Laura",30,26.8,8.3,7.6,0.8,32.5,21.6,10.9,27.5,25.7,27.7,25.6,1184,201,33,60,556,117,486,123,3.26,907,-1
10693,71,"Diospyros_gillespiei","Ebenaceae","Tree",8,0.903089987,"Fiji","abko",17.758,178.577,"Laura",13,24.9,6.3,6.3,1.3,30.1,20.1,10,26.5,23.3,26.5,23.2,2767,390,113,38,1012,379,1012,381,4.51,1864,-1
2173,95,"Alchornea_castaneaefolia","Euphorbiaceae","Shrub",4,0.602059991,"Peru","Los Amigos - successional",12.566,-70.105,"Angela",217,24.8,10.5,7.3,1,31.4,17.2,14.2,25.5,23.2,25.6,23.2,3283,472,113,45,1313,383,1004,383,4.26,1475,-1
2426,28,"Aloe_microstigma","Asphodelaceae","Herb",0.6,-0.22184875,"South Africa","Stellenbosch - Karoo",33.609,19.457,"Angela",394,16.5,13.8,5.4,4,29.6,4.4,25.2,11.3,21.4,21.4,11.3,546,87,14,60,253,48,48,253,1.51,557,-1
30276,85,"Terminalia_strigillosa","Combretaceae","Tree",20,1.301029996,"Fiji","b",16.583,179.242,"Laura",611,22.5,6.1,6.4,1.1,27.7,18.3,9.4,23.8,21,23.8,21,2865,383,111,40,1110,374,1110,374,4.5,1800,-1
12043,55,"Eucalyptus_gillenii","Myrtaceae","Shrub",5,0.698970004,"Australia","Alice - the gap",23.795,133.863,"Angela",701,20.9,16.3,4.8,6,37,3.6,33.4,28.1,14.8,28.1,12.7,278,37,9,42,109,35,109,42,1.32,756,-1
8380,122,"Coccoloba_manzinellensis","Polygonaceae","Tree",12,1.079181246,"Panama","BCI",9.167,-79.85,"Angela",94,26.3,6.7,7.3,0.7,31.2,22.1,9.1,25.7,26.4,27.3,25.5,2607,390,29,56,1026,138,407,705,4.51,2146,1
1905,65,"Aglaia_amplexicaulis","Meliaceae","Shrub/Tree",10,1,"Fiji","ak",18.383,178.142,"Laura",30,24.6,6.3,6.1,1.4,30,19.7,10.3,26,22.9,26.3,22.7,2674,345,132,32,943,414,925,431,4.26,1795,-1
8927,218,"Cornus_sp","Cornaceae","Herb",0.2,-0.698970004,"Norway","Norway",68.606,17.606,"Angela",44,1.2,6.3,2.6,6.2,14.5,-9.5,24,6,-0.6,9.6,-6.2,788,95,41,25,260,132,213,193,1.51,121,1
11772,173,"Erigeron_speciosus","Asteraceae","Herb",0.4,-0.397940009,"USA","Rockies",38.966,-106.987,"Angela",2966,0.2,16.9,4,8.6,21.3,-20.8,42.1,10.5,4,11,-10.8,526,53,30,16,148,105,134,144,2.24,339,1
31214,72,"Typha_domingensis","Typhaceae","Herb",1,0,"Fiji","ao",17.742,178.392,"Laura",47,24.8,6.3,6.3,1.3,30,20.1,9.9,26.1,23,26.3,23,2770,381,118,37,1006,391,1005,391,4.51,1864,-1
19239,70,"Macropiper_timothianum","Piperaceae","Shrub/Tree",5,0.698970004,"Fiji","abk",17.783,178.508,"Laura",30,24.8,6.3,6.3,1.3,30.1,20.1,10,26.2,23.2,26.4,23,2803,390,117,37,1017,389,1013,393,4.51,1864,-1
12091,21,"Eucalyptus_incrassata","Myrtaceae","Tree",8,0.903089987,"Australia","Adelaide - ferries",35.235,139.132,"Angela",52,15.6,11.7,5.3,3.7,27.8,5.8,22,10.9,20.2,20.3,10.9,384,45,18,29,127,59,60,127,2.17,661,-1
13030,13,"Fuchsia_excorticata","Onagraceae","Shrub",13,1.113943352,"New Zealand","Nelson",42,173,"Angela",1650,4.2,8.5,4.4,3.7,14.8,-4.4,19.2,-0.1,8.9,8.9,-0.7,2043,204,105,16,582,388,388,580,4.26,1102,-1
4841,4,"Bolax_gummifera","Apiaceae","Herb",0.08,-1.096910013,"Argentina","Rio Turbio - heath",51.575,-72.312,"Angela",747,3.7,9.7,4.9,3.6,14,-5.6,19.6,3.5,4.2,8,-1.2,500,57,34,15,152,106,120,122,1.26,30,-1
12027,104,"Eucalyptus_confertiflora","Myrtaceae","Tree",20,1.301029996,NA,"Melville Island",11.5,130.967,"Angela",44,27.1,9.4,6.3,1.4,33.2,18.5,14.7,27.7,24.8,28.5,24.8,1664,355,2,100,1032,12,453,12,4.04,969,-1
25282,159,"Quercus_rubra","Fagaceae","Tree",21,1.322219295,"USA","Twin springs, Virginia",36.817,-82.464,"Angela",501,12.7,13,3.8,7.8,29.6,-4.5,34.1,20.6,13.4,22.4,2.3,1121,117,71,12,322,240,310,265,4.07,1325,1
4331,42,"Banksia_hookeriana","Proteaceae","Shrub",1.71,0.23299611,"Australia","Western Australia",29.867,115.25,"Angela",79,20.1,13.3,5.1,4.6,35,9,26,14.7,26,26.4,14.7,520,117,5,83,292,29,30,292,1.67,75,-1
11376,216,"Empetrum_nigrum","Ericaceae","Shrub",0.08,-1.096910013,"Sweden","Abisko - Paddus",68.324,18.843,"Angela",554,-1,7,2.4,7.5,14.6,-14.1,28.7,8.1,-6.7,9.1,-10.1,436,66,19,38,172,65,162,89,1.24,61,1
2472,81,"Alpinia_vitiensis","Zingiberaceae","Herb",2,0.301029996,"Fiji","abt",17.081,179.069,"Laura",2,25.4,6.2,6.5,1.1,30.4,20.9,9.5,26.8,23.9,26.8,23.9,2494,362,88,44,1003,298,1003,298,4.26,1886,-1
23955,73,"Polytrias_amaura","Poaceae","Herb",0.25,-0.602059991,"Fiji","ab",17.667,178.167,"Laura",312,23.5,6.3,6.2,1.3,28.9,18.8,10.1,25.1,21.7,25.1,21.7,2814,379,126,35,1027,413,1027,413,4.26,1795,-1
19370,163,"Maianthemum_sp","Ruscaceae","Herb",0.3,-0.522878745,"USA","Jasper Ridge - Oak forest",37.4,-122.236,"Angela",84,13.8,11.2,5.5,3.3,24.1,4,20.1,9.6,17.7,18,9.6,603,121,2,86,313,9,13,313,1.51,223,1
4583,111,"Berlinia_grandiflora","Fabaceae - C","Tree",35,1.544068044,"Republic of Congo","Congo - bai",2.16,16.153,"Angela",403,24.8,10.5,8,0.6,31.6,18.5,13.1,24.4,24.8,25.6,24.1,1649,224,43,40,603,177,352,504,4.26,1648,1
17453,80,"Kingiodendron_platycarpum","Fabaceae - C","Tree",35,1.544068044,"Fiji","aobt",17.231,178.998,"Laura",2,25.4,6.2,6.5,1.1,30.4,20.9,9.5,26.8,23.9,26.8,23.9,2494,362,88,44,1003,298,1003,298,4.26,1886,-1
31432,213,"Vaccinium_vitis-idaea","Ericaceae","Shrub",0.07,-1.15490196,"USA","Alaska - 12 Mile",65.391,-145.854,"Angela",966,-6.4,11.2,2.1,15.1,20.6,-31.4,52,12.7,-15,12.7,-25.5,244,45,7,59,122,28,122,38,2.07,192,1
3646,79,"Ascarina_swamyana","Chloranthaceae","Tree",10,1,"Fiji","at",17.329,178.983,"Laura",2,25.2,6.2,6.4,1.2,30.2,20.6,9.6,26.6,23.6,26.6,23.6,2576,375,96,42,1003,325,1003,325,4.5,1800,-1
16622,94,"Iriartea_deltoidea","Arecaceae","Tree",20,1.301029996,"Peru","Los Amigos floodplain",12.567,-70.093,"Angela",217,24.9,10.5,7.4,1,31.5,17.4,14.1,25.6,23.3,25.7,23.3,3273,471,113,46,1310,381,1001,381,4.26,1475,-1
24572,143,"Prosopis_velutina","Fabaceae - M","Shrub",4.5,0.653212514,"USA","Tucson - Sonoran desert",32.31,-110.739,"Angela",971,18.9,15.7,4.6,6.9,36.3,2.5,33.8,27.2,22.2,27.9,10.4,380,71,6,61,176,24,144,98,1.01,477,1
31240,203,"Ulmus_glabra","Ulmaceae","Tree",20,1.301029996,"Sweden","Stockholm",58.953,17.61,"Angela",10,7,6.5,2.4,7.1,21.8,-4.8,26.6,15.3,1,16.4,-1.7,508,61,24,28,172,81,162,112,2.79,533,1
30144,66,"Tapeinosperma_clavatum","Myrsinaceae","Shrub/Tree",10,1,"Fiji","ako",18.15,178.356,"Laura",13,24.8,6.3,6.1,1.4,30.2,19.9,10.3,26.1,23.1,26.4,22.9,2993,372,150,30,1025,468,969,483,4.51,1864,-1
25244,121,"Quararibea_asterolepis","Malvaceae","Tree",30,1.477121255,"Panama","Panama - BCI",9.15,-79.849,"Angela",165,26.5,6.8,7.3,0.7,31.4,22.2,9.2,25.8,26.6,27.5,25.6,2542,383,27,56,1004,132,397,975,4.51,2146,1
31431,211,"Vaccinium_vitis-idaea","Ericaceae","Shrub",0.15,-0.823908741,"USA","Alaska - Bonanza",64.769,-148.283,"Angela",382,-4.3,10.7,2.2,13.9,21,-27.1,48.1,13.2,-12.1,13.2,-21.9,296,57,7,68,157,28,157,41,2.51,363,1
24893,189,"Pseudotsuga_menziesii","Pinaceae","Tree",61,1.785329835,"USA","Oregon",44,-122,"Angela",1446,5,12.8,4.1,6.1,23.5,-7.3,30.8,-1.5,13.1,13.1,-2.1,1427,246,23,65,692,106,106,642,2.07,478,1
11463,77,"Endiandra_elaeocarpa","Lauraceae","Tree",25,1.397940009,"Fiji","aot",17.447,178.917,"Laura",97,24.6,6.2,6.3,1.2,29.8,20.1,9.7,26.1,23,26.1,23,2660,382,103,41,1023,345,1023,345,4.5,1800,-1
11715,38,"Eremaea_pauciflora","Myrtaceae","Shrub",1.1,0.041392685,"Australia","Perth - Melaleuca Park",31.689,115.886,"Angela",60,18.3,11.5,4.9,4.1,31.7,8.5,23.2,13.5,23.5,23.9,13.5,762,160,8,84,426,33,39,426,1.51,575,-1
27405,141,"Sarcopoterium_spinosum","Rosaceae","Shrub",0.45,-0.346787486,"Israel","Lehavim",31.356,34.835,"Angela",379,18.9,12,4.7,5,31.8,6.4,25.4,12.1,24.7,24.7,12.1,293,69,0,106,186,0,0,186,1.26,305,1
16438,179,"Impatiens_capensis","Balsaminaceae","Herb",3,0.477121255,"Rhode Island","USA",41.667,-71.25,"Angela",44,10.1,10,2.9,8.4,27.4,-6.5,33.9,1.8,18.3,20.9,-0.8,1176,117,81,11,332,256,262,311,3.39,1044,1
6851,222,"Cassiope_tetragona","Ericaceae","Shrub",0.08,-1.096910013,"Greenland","Zackenberg - hill",74.476,-20.629,"Angela",83,-11.1,7,2.1,9.3,6,-26.5,32.5,-4.3,-7.4,1.7,-21.4,252,27,11,22,76,40,60,68,2.6,4,1
28046,5,"Senecio_filaginoides","Asteraceae","Herb",0.6,-0.22184875,NA,"Patagonia",45.417,-70,"Angela",500,9.6,11.2,4.6,4.8,22.6,-1.3,23.9,3.9,15.6,15.6,3.3,174,23,7,35,65,25,25,57,2.42,505,-1
4917,37,"Bossiaea_eriocarpa","Fabaceae - P","Shrub",0.7,-0.15490196,"Australia","Perth - Darling Scarp",32.02,116.044,"Angela",209,17,11.2,4.6,4.5,31.2,7.2,24,11.7,22.7,23.1,11.7,1003,213,13,85,566,50,54,566,1.93,708,-1
26023,58,"Rhodanthe_floribunda","Asteraceae","Herb",0.2,-0.698970004,"Australia","Kunoth Paddock - Alice Springs",23.533,133.748,"Angela",713,20.4,16,4.8,6.1,36.3,3.1,33.2,26.6,14.2,27.5,12.1,310,41,11,42,121,40,121,46,1.01,605,-1
4101,14,"Austrocedrus_chilensis","Cupressaceae","Tree",35,1.544068044,"Argentina","Bariloche",41.242,-71.425,"Angela",1039,7,11.7,5.1,4.2,20.3,-2.6,22.9,1.7,12.4,12.4,1.7,972,175,28,56,443,106,106,443,4.14,691,-1
8205,78,"Claoxylon_vitiense","Euphorbiaceae","Shrub/Tree",8,0.903089987,"Fiji","abo",17.356,178.675,"Laura",3,25,6.3,6.4,1.2,30.2,20.4,9.8,26.5,23.4,26.5,23.4,2664,384,103,40,1011,349,1011,349,4.51,1864,-1
28954,174,"Solidago_missouriensis","Asteraceae","Herb",0.663545151,-0.178129521,"USA","Kansas",39.083,-96.583,"Angela",407,12,12.7,3,10,32.3,-9.1,41.4,22.1,-1.4,24.5,-1.4,872,137,20,51,355,71,326,71,4.14,1414,1
23282,151,"Pistacia_lentiscus","Anacardiaceae","Shrub",2,0.301029996,"Israel","Adulam",34.935,34.935,"Angela",358,4.8,7.1,2.2,8.7,21.8,-10.2,32,10.6,-5.7,16.1,-6.3,599,77,26,34,217,90,185,105,1.01,386,1
4616,212,"Betula_papyrifera","Betulaceae","Tree",15,1.176091259,"USA","Alaska campus",64.86,-147.862,"Angela",688,-2.9,10.9,2.2,14.1,22.4,-26.7,49.1,14.7,-10.5,14.7,-21,301,54,8,57,144,31,144,47,2.51,317,1
11513,29,"Epacris_microphylla","Ericaceae","Shrub",0.8,-0.096910013,"Australia","Kuringai - Challenger",33.595,151.276,"Angela",151,16.9,9.8,4.8,3.8,26,5.7,20.3,21.3,12.4,21.4,11.7,1313,160,65,29,458,213,392,283,4.51,1435,-1
6596,154,"Carya_ovalis","Juglandaceae","Tree",45,1.653212514,"USA","Colorado",35.8,-89.9,"Angela",71,15.5,11.4,3.2,8.6,32.9,-2.6,35.5,15.6,21.5,26.1,3.8,1262,129,66,18,382,249,268,325,3.14,1266,1
21047,193,"Oemleria_cerasiformis","Rosaceae","Shrub",2.5,0.397940009,"USA","Oregon - McDun",44.6,-123.334,"Angela",179,10.8,11.8,4.4,5.2,27,0.3,26.7,4.9,17.4,17.6,4.5,1208,217,13,69,601,68,75,560,2.51,572,1
20913,3,"Nothofagus_pumilio","Fagaceae","Tree",20,1.301029996,"Argentina","Rio Turbio - Nothofagus",51.578,-72.315,"Angela",702,3.7,9.7,4.9,3.6,14,-5.6,19.6,3.5,4.2,8,-1.2,500,57,34,15,152,106,120,122,1.26,30,-1
26992,221,"Salix_arctica","Salicaceae","Shrub",0.04,-1.397940009,"Greenland","Zackenberg - salix",74.474,-20.536,"Angela",37,-10.5,7,2.1,9.3,6.5,-25.8,32.3,-3.7,-6.8,2.3,-20.7,236,26,10,24,73,36,57,63,2.6,4,1
17160,93,"Julbernardia_paniculata","Fabaceae - C","Tree",8,0.903089987,"Zambia","Zambia - miombo",13.249,30.28,"Angela",1506,18.6,12.4,5.6,2.4,29.3,7.5,21.8,20.2,15,20.9,15,1099,270,0,118,790,0,383,0,2.51,684,-1
2347,51,"Allophylus_edulis","Sapindaceae","Tree",15,1.176091259,"Argentina","Tucuman - Yungas South",26.763,-65.333,"Angela",935,18.6,11.5,4.8,4.2,29.8,6,23.8,23.6,14.6,23.6,12.9,882,184,10,82,472,33,472,34,1.51,596,-1
21928,220,"Pedicularis_hirsuta","Orobanchaceae","Herb",0.25,-0.602059991,"Greenland","disko island",69.25,-53.6,"Angela",150,-5.7,5.5,1.8,8,8.3,-20.7,29,1.2,-16.2,4.3,-16.2,305,38,16,30,106,52,87,52,1.01,32,1
6060,215,"Carex_supina","Cyperaceae","Herb",0.05,-1.301029996,"Greenland","Kangerlussuaq - dry",66.973,-50.568,"Angela",75,-5.1,8.2,2.3,10,14.1,-21.2,35.3,6.3,-13.7,8.1,-16.6,257,31,11,33,92,40,84,45,1.29,65,1
13086,16,"Gahnia_sp","Cyperaceae","Herb",1.3,0.113943352,"Australia","Bunyip - Melbourne",38.01,145.62,"Angela",164,13.6,10.5,4.8,3.7,25.7,4.2,21.5,11.1,18.4,18.4,8.8,1016,107,52,20,313,176,176,275,2.71,793,-1
12090,23,"Eucalyptus_sp4","Myrtaceae","Tree",10,1,"Australia","Adelaide - Brookfield Chenopod",34.347,139.517,"Angela",99,16.2,13.4,5.1,4.5,30.7,4.8,25.9,11.1,21.8,22,10.4,276,31,15,23,84,49,51,80,2.14,773,-1
18212,43,"Leucopogon_sp1","Ericaceae","Shrub",2,0.301029996,"Australia","Armidale - Goonoowigal",29.815,151.121,"Angela",686,15.3,14.5,4.9,5.3,29.3,0.1,29.2,21.8,8.2,21.8,8.2,780,105,37,33,287,133,287,133,3.26,1272,-1
7040,164,"Ceanothus_cuneatus","Rhamnaceae","Shrub",3.5,0.544068044,"USA","Jasper Ridge - Chaparral",37.4,-122.233,"Angela",150,13.8,11.3,5.5,3.3,24.2,4,20.2,9.6,17.7,18.1,9.6,598,120,2,87,311,9,13,311,1.51,223,1
30766,56,"Trichilia_hieronymi","Meliaceae","Tree",10,1,"Argentina","Tucuman - Yungas North",23.747,-64.854,"Angela",737,19.8,12.9,5.2,3.9,30.7,6.2,24.5,23.4,14.4,24.2,14.4,793,162,4,89,455,20,439,20,2.42,476,-1
11724,53,"Eremophila_maitlandii","Scrophulariaceae","Shrub",2.05,0.311753861,"Australia","WA",24.65,113.7,"Angela",7,22.3,10.7,4.6,4.1,33.8,10.8,23,18.2,23.1,27.6,17,216,50,0,83,127,5,54,108,1.51,464,-1
16105,10,"Hyalis_argentea","Asteraceae","Shrub",1,0,"Argentina","Puerto Madryn - dune",42.769,-64.101,"Angela",66,13,10.3,4.7,4.2,24.5,2.7,21.8,13.7,17,18.3,7.4,214,28,9,35,77,36,37,55,1.01,404,-1
5464,195,"Cakile_edentula","Brassicaceae","Herb",0.2,-0.698970004,"Canada","Nova Scotia",44.683,-63.117,"Angela",4,6.4,9.1,2.8,8,22.5,-9.5,32,-0.8,13.4,16.5,-3.8,1379,149,91,16,432,294,296,400,3.26,711,1
32688,20,"Allocasuarina_sp","Casuarinaceae","Shrub",3,0.477121255,"Australia","Adelaide - Cox's scrub",35.341,138.74,"Angela",177,14.9,10,5.1,3.5,25.9,6.4,19.5,10.5,19.3,19.3,10.5,682,96,22,47,272,75,75,272,2.14,695,-1
32693,194,"unknown_poaceae","Poaceae","Herb",0.12,-0.920818754,"USA","Oregon - Yaquina Head",44.667,-124.072,"Angela",324,10.6,7.7,5,2.8,18.9,3.5,15.4,7.6,14,14.4,7.2,1936,315,27,62,900,133,134,848,2.51,572,1
4954,176,"Bouteloua_gracilis","Poaceae","Herb",0.2,-0.698970004,"USA","Colorado",40.817,-107.783,"Angela",2177,4.3,16.9,3.9,9,27.7,-15.5,43.2,3.4,-7.3,15.9,-7.3,374,37,23,13,106,77,93,77,0.51,261,1
20912,12,"Nothofagus_cunninghami","Fagaceae","Tree",32,1.505149978,"Australia","Mt Field, Tasmania",42.679,146.669,"Angela",704,7.9,8.8,4.8,3.2,18.2,0,18.2,4.2,12,12,3.7,1156,117,54,20,347,200,200,322,2.96,643,-1
12099,15,"Eucalyptus_sp7","Myrtaceae","Tree",18,1.255272505,"Australia","Green's Bush - Melbourne",38.43,144.922,"Angela",165,13.5,7.5,4.5,3.2,22.8,6.2,16.6,10.2,17.6,17.6,9.5,915,101,45,25,289,150,150,287,4.04,1023,-1
11188,76,"Elaeocarpus_pyriformis","Elaeocarpaceae","Tree",15,1.176091259,"Fiji","abngau",17.472,178.847,"Laura",41,25,6.3,6.4,1.2,30.1,20.4,9.7,26.4,23.3,26.4,23.3,2616,379,100,41,1012,335,1012,335,4.5,1800,-1
6787,137,"Casimiroa_greggii","Rutaceae","Shrub",7,0.84509804,"Mexico","Linares - Puenta Viejo",24.749,-99.799,"Angela",736,20.7,14.3,5.5,4,32.9,7.2,25.7,23.5,15.2,25.4,15.2,703,149,14,71,325,54,268,54,2.26,844,1
15651,61,"Heteropogon_triticeus","Poaceae","Herb",0.4,-0.397940009,"Australia","Townsville savanna",19.337,146.755,"Angela",79,23.9,9.9,5.2,3.1,31.7,12.9,18.8,27.1,20.3,27.3,19.4,1027,251,9,101,668,33,626,42,4.14,1012,-1
32320,100,"Xanthostemon_paradoxus","Myrtaceae","Tree",7,0.84509804,"Australia","Howard Springs, Darwin",12.494,131.108,"Angela",26,27.3,10.5,6,1.7,34.6,17.2,17.4,28.1,24.7,29.2,24.7,1505,371,1,104,970,7,408,7,4.07,956,-1
23396,165,"Plantago_erecta","Plantaginaceae","Herb",0.06,-1.22184875,"USA","Jasper Ridge - Serpentine",37.4,-122.224,"Angela",179,13.7,11.4,5.5,3.3,24.4,4,20.4,9.6,17.7,18,9.6,630,127,2,86,328,9,13,328,1.51,223,1
24617,26,"Protea_sp","Proteaceae","Shrub",2,0.301029996,"South Africa","Stellenbosch - fynbos",33.992,18.975,"Angela",387,15.7,11.2,5.3,3.5,27.3,6.3,21,12.2,20.2,20.3,11.5,1052,160,29,59,468,95,98,459,2.01,517,-1
25159,8,"Pultenaea_juniperina","Fabaceae - P","Shrub",1.5,0.176091259,"Australia","Huon Rd, Tasmania",42.921,147.275,"Angela",346,9.9,8.8,5,3,19.6,2.2,17.4,6.5,13.8,13.8,5.9,1037,115,63,17,311,205,205,296,2.82,743,-1
2357,91,"Alloteropsis_semialata","Poaceae","Herb",0.55,-0.259637311,"Australia","Cape York",14.967,143.583,"Angela",85,26,12.4,6.2,2.3,35.1,15.1,20,27.8,23.4,28.4,22.7,1117,290,2,113,767,9,501,13,4.03,811,-1
21603,19,"Panicum_urvilleanum","Poaceae","Herb",0.2,-0.698970004,"Argentina","Mendoza - Payunia",36.25,-68.824,"Angela",1502,10.9,16.3,5.2,5.5,27.7,-3.6,31.3,17.3,6.9,18,3.8,208,23,13,17,65,44,61,47,1.89,522,-1
31003,75,"Trimenia_weinmanniifolia","Trimeniaceae","Tree",10,1,"Fiji","abtk",17.552,178.873,"Laura",6,25,6.2,6.3,1.2,30.2,20.4,9.8,26.5,23.3,26.5,23.3,2662,386,103,40,1008,350,1008,350,4.5,1800,-1
9565,101,"Cupaniopsis_anacardioides","Sapindaceae","Tree",8,0.903089987,"Australia","Darwin - East point",12.406,130.82,"Angela",11,27.5,9.6,6.2,1.5,33.9,18.5,15.4,28.2,25.2,29.1,25.2,1663,428,1,106,1091,10,428,10,4.07,956,-1
12541,199,"Fagus_sylvatica","Fagaceae","Tree",39,1.591064607,"Germany","Barvaria",49.867,10.45,"Angela",415,8,8.9,3.2,6.7,22.9,-4.1,27,16.5,0.5,16.5,-0.7,692,80,43,18,218,143,218,155,3.57,827,1
8880,198,"Corema_conradi","Ericaceae","Shrub",0.5,-0.301029996,"Canada","Quebec",47.533,-61.7,"Angela",1,4.9,6.2,2,8.2,20.4,-10.2,30.6,-1.8,11.8,15.6,-5.4,977,110,64,18,308,201,222,239,NA,NA,1
32675,102,"_8324",NA,NA,2.5,0.397940009,"Peru","Manu",12.183,-70.917,"Angela",350,24.8,10.8,7.6,0.8,31.4,17.3,14.1,25.2,23.6,25.6,23.6,2920,397,99,43,1125,336,891,350,4.26,1461,-1
32694,134,"Piranhea_sp","Picrodendraceae","Tree",12.5,1.096910013,"Mexico","Chamela",19.5,-105.043,"Angela",357,26.2,12.8,7.2,1.6,33.6,16,17.6,27.7,25.2,28,23.9,790,215,1,110,546,12,403,29,4.07,855,1
5079,92,"Bridelia_micrantha","Phyllanthaceae","Tree",9,0.954242509,"Zambia","Zambia - Mateshi",13.253,30.047,"Angela",1388,19.1,12.7,5.5,2.6,30.1,7.3,22.8,20.9,15.1,21.7,15.1,1085,265,0,118,778,0,383,0,4.03,652,-1
2720,129,"Ampelocera_hottlei","Ulmaceae","Tree",25,1.397940009,"Mexico","Chajul",16.106,-90.987,"Angela",41,25.9,11.3,6.9,1.5,34,17.8,16.2,26.6,25.8,27.5,23.7,3048,515,57,68,1422,195,680,304,4.51,1809,1
21232,149,"Opuntia_acanthocarpa","Cactaceae","Shrub",0.72,-0.142667504,"USA","California",33.633,-116.4,"Angela",900,16.7,16.6,4.7,6.6,36.3,1.5,34.8,9.9,22.6,25.4,8.9,290,46,2,57,129,22,50,126,1.01,492,1
18833,147,"Ludwigia_leptocarpa","Onagraceae","Herb/Shrub",1.5,0.176091259,"USA","South Carolina",33.217,-81.75,"Angela",54,17.5,14,4.2,6.9,33.4,0.6,32.8,26.1,13,26.1,8.2,1165,123,63,19,358,220,358,297,3.35,1415,1
21140,49,"Olearia_elliptica","Asteraceae","Shrub",2.8,0.447158031,"Australia","Toowoomba",28.085,151.729,"Angela",643,17,13.7,5.1,4.8,29.5,2.8,26.7,22.6,10.5,22.6,10.5,706,92,32,35,258,111,258,111,2.51,1119,-1
30141,68,"Tapeinosperma_grande","Myrsinaceae","Shrub/Tree",6,0.77815125,"Fiji","abkngau",17.846,178.706,"Laura",8,24.9,6.3,6.4,1.3,30.1,20.3,9.8,26.5,23.3,26.5,23.2,2731,394,109,39,1011,365,1011,371,4.51,1864,-1
3970,11,"Atherosperma_moschatum","Atherospermataceae","Tree",31,1.491361694,"Australia","Tasmania",42.683,146.35,"Angela",740,7.5,8.4,4.8,3,17.5,0.1,17.4,4,11.4,11.4,3.6,1720,182,72,23,530,280,280,495,2.96,643,-1
28244,67,"Sesbania_grandiflora","Fabaceae - P","Tree",12,1.079181246,"Fiji","a-ngau",17.917,178.65,"Laura",12,24.8,6.3,6.3,1.3,30.1,20.1,10,26.2,23.2,26.4,23,2835,401,116,37,1026,385,1019,398,4.51,1864,-1
13427,204,"Gentiana_campestris","Gentianaceae","Herb",12.4,1.093421685,"Sweden","Sodermanland",59.333,16.85,"Angela",33,6.2,7.3,2.5,7.3,21.7,-6.6,28.3,14.7,0.2,15.9,-2.8,564,70,27,29,197,90,188,116,3.07,615,1
26029,214,"Rhododendron_palustre","Ericaceae","Shrub",0.1,-1,"Greenland","Kangerlussuaq - wet",66.973,-50.569,"Angela",65,-5.1,8.2,2.3,10,14.1,-21.2,35.3,6.3,-13.7,8.1,-16.6,257,31,11,33,92,40,84,45,1.29,65,1
4620,217,"Betula_pubescens","Betulaceae","Tree",6,0.77815125,"Sweden","Abisko - forest",68.329,18.836,"Angela",521,-0.7,7,2.4,7.4,14.8,-13.7,28.5,8.3,-6.4,9.3,-9.7,422,64,18,39,168,62,158,85,1.24,61,1
12031,99,"Eucalyptus_miniata","Myrtaceae","Tree",20,1.301029996,"Australia","Howard Springs, Darwin",12.494,131.108,"Angela",26,27.3,10.5,6,1.7,34.6,17.2,17.4,28.1,24.7,29.2,24.7,1505,371,1,104,970,7,408,7,4.07,956,-1
30142,82,"Tapeinosperma_megaphyllum","Myrsinaceae","Shrub/Tree",4,0.602059991,"Fiji","abrambi",16.956,179.069,"Laura",5,25.5,6.2,6.6,1.1,30.4,21.1,9.3,26.8,24,26.8,24,2462,356,83,45,1007,284,1007,284,4.26,1886,-1
12604,145,"Ferocactus_cylindraceus","Cactaceae","Shrub",1.7,0.230448921,"USA","Tucson",32.6,-111.233,"Angela",690,20.5,17.2,4.6,7.4,39.2,2.6,36.6,29.5,23.8,30,11.4,354,57,8,50,143,29,117,97,1.26,349,1
22392,144,"Phillyrea_latifolia","Oleaceae","Shrub",3,0.477121255,"Israel","Hanadiv",32.555,34.938,"Angela",115,19.9,9.7,4.4,4.9,30.7,8.7,22,13.6,25.3,25.7,13.6,598,159,0,115,408,0,2,408,1.01,359,1
7039,148,"Ceanothus_greggii","Rhamnaceae","Shrub",3,0.477121255,"USA","California",33.383,-116,"Angela",-71,22.9,17.4,4.6,7.1,41.7,4.5,37.2,15.5,25.7,31.9,13.9,73,12,0,51,31,4,10,30,1.51,415,1
228,138,"Acacia_rigidula","Fabaceae - M","Shrub",4.5,0.653212514,"Mexico","Linares - thornscrub",24.786,-99.515,"Angela",354,22.6,13.9,4.8,5.1,36.2,7.6,28.6,26,15.6,28.5,15.6,803,154,20,66,338,68,285,68,2.26,1044,1
4297,96,"Bambusa_weberbaueri","Poaceae","Shrub",6,0.77815125,"Peru","Los Amigos - Bamboo",12.566,-70.099,"Angela",256,24.8,10.5,7.3,1,31.4,17.2,14.2,25.6,23.3,25.7,23.3,3269,470,112,45,1308,380,1001,397,4.26,1475,-1
24564,9,"Prosopidastrum_globosum","Fabaceae - M","Shrub",1.5,0.176091259,"Argentina","Puerto Madryn - steppe",42.79,-64.092,"Angela",76,13,10.2,4.6,4.3,24.4,2.6,21.8,13.7,17,18.3,7.4,214,28,9,35,77,36,37,55,1.01,404,-1
2834,109,"Andropogon_greenwayi","Poaceae","Herb",0.3,-0.522878745,"Tanzania","Serengeti, Naabi hill",3.217,35.483,"Angela",1550,13.7,8.8,6.5,1.3,20.4,6.9,13.5,14.8,12.2,14.8,11.7,1019,192,9,73,451,33,451,44,3.48,1209,-1
29075,210,"Sorbus_aucuparia","Rosaceae","Tree",15,1.176091259,"Sweeden","Umea",63.817,20.267,"Angela",21,2.7,8.5,2.4,8.9,20.7,-13.8,34.5,13.1,-4.2,14.5,-8.6,572,70,32,26,189,99,168,128,2.79,414,1
7867,6,"Chionochloa_pallens","Poaceae","Herb",1.5,0.176091259,"New Zealand","Canterbury",43.533,171.55,"Angela",1070,7.8,9.4,4.5,3.9,18.5,-2,20.5,5.5,12.5,12.6,2.6,1211,120,71,12,339,259,266,326,1.26,30,-1
24239,97,"Pourouma_minor","Urticaceae","Tree",28,1.447158031,"Peru","Los Amigos -terrace",12.552,-70.111,"Angela",237,24.8,10.5,7.3,1,31.4,17.2,14.2,25.4,23.2,25.6,23.2,3283,471,113,45,1312,383,1004,383,4.26,1475,-1
30396,46,"Themeda_triandra","Poaceae","Herb",0.7,-0.15490196,"South Africa","Zululand - ledube",28.234,32.017,"Angela",289,20.5,10.2,5.8,2.4,28.5,11,17.5,23.4,17.2,23.4,17.2,926,129,32,43,347,104,344,104,3.35,525,-1
11477,50,"Englerophytum_natalense","Sapotaceae","Tree",7,0.84509804,"South Africa","Zululand - forest",28.072,32.039,"Angela",267,19.4,10.2,6,2.3,27.2,10.3,16.9,22.1,16.5,22.1,16.2,964,139,28,49,372,97,371,97,3.35,525,-1
19797,74,"Melicytus_fasciger","Violaceae","Shrub/Tree",10,1,"Fiji","atngau",17.564,179.089,"Laura",1,25.1,6.3,6.4,1.2,30.2,20.5,9.7,26.6,23.5,26.6,23.5,2598,378,100,41,994,339,994,339,4.5,1800,-1
16616,172,"Ipomopsis_aggregata","Polemoniaceae",NA,0.81,-0.091514981,"USA","Colorado",38.867,-106.967,"Angela",2698,1.3,17.9,4,9,23.6,-20.9,44.5,-10.6,5.6,12.6,-10.6,539,60,28,20,166,100,123,166,2.24,339,1
150,57,"Acacia_aneura","Fabaceae - M","Shrub/Tree",9,0.954242509,"Australia","Kunoth Paddock - Alice Springs",23.533,133.748,"Angela",713,20.4,16,4.8,6.1,36.3,3.1,33.2,26.6,14.2,27.5,12.1,310,41,11,42,121,40,121,46,1.01,605,-1
30345,156,"Thalictrum_thalictroides","Ranunculaceae","Herb",0.2,-0.698970004,"USA","Duke Forest, Durham, NC",35.967,-79,"Angela",99,14.9,13.4,3.9,7.6,31.8,-2.4,34.2,24.6,10.2,24.6,4.8,1150,113,81,12,325,252,325,277,3.26,1274,1
21568,83,"Pandanus_taveuniensis","Pandanaceae","Tree",3.3,0.51851394,"Fiji","t",16.858,179.967,"Laura",265,24.3,6.1,6.5,1.1,29.3,20,9.3,25.6,22.8,25.6,22.8,2567,351,95,42,1009,324,1009,324,4.5,1800,-1
21606,48,"Panicum_maximum","Poaceae","Herb",0.5,-0.301029996,"South Africa","Zululand - Mbuzane",28.221,31.794,"Angela",161,21,11,5.9,2.5,29.3,10.7,18.6,23.9,17.4,23.9,17.4,834,116,25,47,321,84,309,84,3.35,525,-1
13286,87,"Gardenia_actinocarpa","Rubiaceae","Shrub/Tree",3.5,0.544068044,"Australia","Queensland",16.1,145.367,"Angela",840,21.2,9.4,5.9,2.3,28.9,13,15.9,23.4,20,23.7,17.9,1741,365,27,86,1031,92,868,116,4.04,908,-1
6781,84,"Casearia_stenophylla","Salicaceae","Shrub/Tree",4,0.602059991,"Fiji","bt",16.721,179.604,"Laura",74,25.3,6.2,6.7,1,30.2,21,9.2,26.5,23.8,26.5,23.8,2444,343,84,44,989,288,989,288,4.5,1800,-1
30971,207,"Triglochin_palustre","Juncaginaceae","Herb",0.15,-0.823908741,"USA","Alaska, Yukon delta",61.25,-165.5,"Angela",1,-1.2,6.8,2.3,8.3,13.8,-15.3,29.1,9.1,-8.7,9.6,-11.1,657,133,24,61,313,85,256,90,2.15,204,1
21743,62,"Paraserianthes_toona","Fabaceae - M","Tree",16,1.204119983,"Australia","Townsville Vine Thicket",19.332,146.773,"Angela",99,23.9,9.9,5.2,3.1,31.6,12.8,18.8,27,20.2,27.2,19.3,1036,253,9,101,674,33,631,43,4.14,1012,-1
19849,64,"Melochia_longepetiolata","Malvaceae","Tree",8,0.903089987,"Fiji","k",18.967,178.283,"Laura",72,24.1,6.4,5.9,1.5,29.8,19.1,10.7,25.7,22.3,26,22.2,2314,316,119,34,836,372,834,384,4.51,1864,-1
10796,60,"Dombeya_ciliata","Malvaceae",NA,15,1.176091259,"France?","Reunion Island",21,55.65,"Angela",191,22.7,6.3,5.2,2.1,28.7,16.8,11.9,25.3,20.4,25.3,20,1397,235,37,57,650,137,650,172,NA,NA,-1
32698,31,"Elytropappus _rhinocerotis","Asteraceae","Shrub",1.5,0.176091259,"South Africa","Stellenbosch - renosterveld",33.448,19.048,"Angela",89,17.9,13.5,5.3,4.3,31,5.7,25.3,13.2,23.2,23.2,12.4,583,94,11,63,271,48,48,266,1.51,633,-1
19298,63,"Maesa_tongensis","Maesaceae","Shrub/Tree",4,0.602059991,"Fiji","fulanga",19.133,-178.567,"Laura",0,24.9,6.2,6,1.4,30.3,20.1,10.2,26.5,23.2,26.5,23,1831,278,76,41,724,257,724,270,4.5,1800,-1
8119,178,"Cirsium_altissimum","Asteraceae","Herb",4,0.602059991,"USA","Indiana Dunes",41.617,-86.95,"Michelle",200,9.7,10.7,2.8,9.7,28.6,-9.5,38.1,21.6,-3.3,21.6,-3.3,976,104,44,23,299,165,299,165,3.26,1131,1
14005,118,"Gomphrena_globosa","Amaranthaceae","Herb",0.5,-0.301029996,NA,"Marshall Islands",9,168,"Laura",2,27.7,4.8,8.8,0.2,30.6,25.2,5.4,27.9,27.5,27.9,27.5,2585,300,82,34,870,305,855,405,NA,NA,1
8311,27,"Clerodendrum_tomentosum","Lamiaceae","Shrub",3,0.477121255,"Australia","Kuringai Chase, Sydney",33.65,151.2,"Michelle",157,16.8,10,4.8,3.9,26.1,5.5,20.6,21.2,12.3,21.4,11.5,1283,157,63,29,450,208,385,279,4.14,1563,-1
11717,54,"Eremophila_duttonii","Scrophulariaceae","Shrub",3,0.477121255,"Australia","Central Australia",23.8,133.833,"Michelle",553,20.9,16.3,4.8,6,37,3.6,33.4,28.1,14.8,28.1,12.8,278,37,9,42,109,35,109,42,1.32,756,-1
19779,69,"Melicope_evansensis","Rutaceae","Shrub/Tree",10,1,"Fiji","Viti Levu",17.8,178,"Laura",1108,19.3,6.3,5.8,1.5,25.3,14.6,10.7,21.1,17.4,21.1,17.3,3191,412,160,31,1136,521,1136,523,4.26,1795,-1
1593,86,"Acmena_graveolens","Myrtaceae","Tree",32,1.505149978,"Australia","Cairns - Daintree canopy crane",16.103,145.446,"Angela",263,25.2,8.3,5.8,2.1,31.9,17.8,14.1,27.2,22.8,27.5,22.3,2087,459,26,93,1294,92,1031,108,4.04,908,-1
24260,103,"Pouteria_sp1","Sapotaceae","Tree",21,1.322219295,"Peru","Manu",12.183,-70.55,"Angela",386,24.5,10.8,7.4,0.9,31.2,16.7,14.5,25.1,23.2,25.3,23.1,3015,416,99,45,1177,340,928,359,4.26,1405,-1
5652,106,"Calophyllum_inophyllum","Clusiaceae","Tree",25,1.397940009,"Australia","Christmas Island",10.417,105.667,"Laura",2,26.4,5,7.4,0.6,29.9,23.2,6.7,26.8,25.7,27.1,25.5,1704,309,16,66,806,92,659,135,4.51,2296,-1
2926,123,"Annona_muricata","Annonaceae","Tree",8,0.903089987,"Micronesia","Yap",9.5,138.167,"Laura",15,27.2,6.8,9.1,0.2,31.1,23.7,7.4,27.2,27.2,27.5,26.9,3031,368,144,31,1055,436,689,489,NA,NA,1
8778,107,"Corchorus_aestuans","Malvaceae","Herb",0.5,-0.301029996,"Papua New Guinea","Motupore Island",9.5,147.267,"Laura",30,26.8,8.3,7.6,0.8,32.5,21.6,10.9,27.5,25.7,27.7,25.6,1184,201,33,60,556,117,486,123,3.26,907,-1
31929,173,"Viguiera_multiflora","Asteraceae","Herb",0.315,-0.501689446,"USA","Rockies",38.966,-106.987,"Angela",2966,0.2,16.9,4,8.6,21.3,-20.8,42.1,10.5,4,11,-10.8,526,53,30,16,148,105,134,144,2.24,339,1
4768,81,"Bleasdalea_ferruginea","Proteaceae","Tree",17,1.230448921,"Fiji","abt",17.081,179.069,"Laura",2,25.4,6.2,6.5,1.1,30.4,20.9,9.5,26.8,23.9,26.8,23.9,2494,362,88,44,1003,298,1003,298,4.26,1886,-1
14820,80,"Guioa_chrysea","Sapindaceae","Tree",20,1.301029996,"Fiji","abot",17.231,178.998,"Laura",2,25.4,6.2,6.5,1.1,30.4,20.9,9.5,26.8,23.9,26.8,23.9,2494,362,88,44,1003,298,1003,298,4.26,1886,-1
11373,73,"Emmenosperma_micropetalum","Rhamnaceae","Shrub/Tree",15,1.176091259,"Fiji","ab",17.667,178.167,"Laura",312,23.5,6.3,6.2,1.3,28.9,18.8,10.1,25.1,21.7,25.1,21.7,2814,379,126,35,1027,413,1027,413,4.26,1795,-1
29999,70,"Syzygium_leucanthum","Myrtaceae","Tree",30,1.477121255,"Fiji","abk",17.783,178.508,"Laura",30,24.8,6.3,6.3,1.3,30.1,20.1,10,26.2,23.2,26.4,23,2803,390,117,37,1017,389,1013,393,4.51,1864,-1
1907,72,"Aglaia_basiphylla","Meliaceae","Tree",8,0.903089987,"Fiji","ao",17.742,178.392,"Laura",47,24.8,6.3,6.3,1.3,30,20.1,9.9,26.1,23,26.3,23,2770,381,118,37,1006,391,1005,391,4.51,1864,-1
12030,104,"Eucalyptus_tetrodonta","Myrtaceae","Tree",30,1.477121255,NA,"Melville Island",11.5,130.967,"Angela",44,27.1,9.4,6.3,1.4,33.2,18.5,14.7,27.7,24.8,28.5,24.8,1664,355,2,100,1032,12,453,12,4.04,969,-1
11388,143,"Encelia_farinosa","Asteraceae","Shrub",0.8,-0.096910013,"USA","Tucson - Sonoran desert",32.31,-110.739,"Angela",971,18.9,15.7,4.6,6.9,36.3,2.5,33.8,27.2,22.2,27.9,10.4,380,71,6,61,176,24,144,98,1.01,477,1
11375,213,"Empetrum_nigrum","Ericaceae","Shrub",0.07,-1.15490196,"USA","Alaska - 12 Mile",65.391,-145.854,"Angela",966,-6.4,11.2,2.1,15.1,20.6,-31.4,52,12.7,-15,12.7,-25.5,244,45,7,59,122,28,122,38,2.07,192,1
19961,78,"Metrosideros_collina","Myrtaceae","Tree",15,1.176091259,"Fiji","abo",17.356,178.675,"Laura",3,25,6.3,6.4,1.2,30.2,20.4,9.8,26.5,23.4,26.5,23.4,2664,384,103,40,1011,349,1011,349,4.51,1864,-1
19250,37,"Macrozamia_riedlei","Zamiaceae","Shrub",1.8,0.255272505,"Australia","Perth - Darling Scarp",32.02,116.044,"Angela",209,17,11.2,4.6,4.5,31.2,7.2,24,11.7,22.7,23.1,11.7,1003,213,13,85,566,50,54,566,1.93,708,-1
11743,55,"Eriachne_mucronata","Poaceae","Herb",0.2,-0.698970004,"Australia","Alice - the gap",23.795,133.863,"Angela",701,20.9,16.3,4.8,6,37,3.6,33.4,28.1,14.8,28.1,12.7,278,37,9,42,109,35,109,42,1.32,756,-1
8734,13,"Coprosma_areolata","Rubiaceae","Shrub",5,0.698970004,"New Zealand","Nelson",42,173,"Angela",1650,4.2,8.5,4.4,3.7,14.8,-4.4,19.2,-0.1,8.9,8.9,-0.7,2043,204,105,16,582,388,388,580,4.26,1102,-1
22391,151,"Phillyrea_latifolia","Oleaceae","Shrub",3.5,0.544068044,"Israel","Adulam",34.935,34.935,"Angela",358,4.8,7.1,2.2,8.7,21.8,-10.2,32,10.6,-5.7,16.1,-6.3,599,77,26,34,217,90,185,105,1.01,386,1
31143,189,"Tsuga_heterophylla","Pinaceae","Tree",29,1.462397998,"USA","Oregon",44,-122,"Angela",1446,5,12.8,4.1,6.1,23.5,-7.3,30.8,-1.5,13.1,13.1,-2.1,1427,246,23,65,692,106,106,642,2.07,478,1
30763,122,"Trichilia_tuberculata","Meliaceae","Tree",30,1.477121255,"Panama","BCI",9.167,-79.85,"Angela",94,26.3,6.7,7.3,0.7,31.2,22.1,9.1,25.7,26.4,27.3,25.5,2607,390,29,56,1026,138,407,705,4.51,2146,1
29309,79,"Spiraeanthemum_serratum","Cunoniaceae","Shrub/Tree",5,0.698970004,"Fiji","at",17.329,178.983,"Laura",2,25.2,6.2,6.4,1.2,30.2,20.6,9.6,26.6,23.6,26.6,23.6,2576,375,96,42,1003,325,1003,325,4.5,1800,-1
25823,174,"Ratibida_columnifera","Asteraceae","Herb",1,0,"USA","Kansas",39.083,-96.583,"Angela",407,12,12.7,3,10,32.3,-9.1,41.4,22.1,-1.4,24.5,-1.4,872,137,20,51,355,71,326,71,4.14,1414,1
20937,154,"Nyssa_sylvatica","Nyssaceae","Tree",40,1.602059991,"USA","Colorado",35.8,-89.9,"Angela",71,15.5,11.4,3.2,8.6,32.9,-2.6,35.5,15.6,21.5,26.1,3.8,1262,129,66,18,382,249,268,325,3.14,1266,1
2956,85,"Annona_muricata","Annonaceae","Tree",7,0.84509804,"Fiji","b",16.583,179.242,"Laura",611,22.5,6.1,6.4,1.1,27.7,18.3,9.4,23.8,21,23.8,21,2865,383,111,40,1110,374,1110,374,4.5,1800,-1
30008,66,"Syzygium_brackenridgei","Myrtaceae","Tree",20,1.301029996,"Fiji","ako",18.15,178.356,"Laura",13,24.8,6.3,6.1,1.4,30.2,19.9,10.3,26.1,23.1,26.4,22.9,2993,372,150,30,1025,468,969,483,4.51,1864,-1
10692,71,"Diospyros_gillespiei","Ebenaceae","Tree",15,1.176091259,"Fiji","abko",17.758,178.577,"Laura",13,24.9,6.3,6.3,1.3,30.1,20.1,10,26.5,23.3,26.5,23.2,2767,390,113,38,1012,379,1012,381,4.51,1864,-1
32309,30,"Xanthorrhoea_sp1","Xanthorrhoeaceae","Shrub",2,0.301029996,"Australia","Kuringai - Diatreme",33.578,151.292,"Angela",188,17,9.7,4.8,3.8,26.1,5.9,20.2,21.4,12.6,21.5,11.9,1307,159,64,29,455,212,391,280,4.51,1435,-1
4341,38,"Banksia_attenuata","Proteaceae","Tree",8,0.903089987,"Australia","Perth - Melaleuca Park",31.689,115.886,"Angela",60,18.3,11.5,4.9,4.1,31.7,8.5,23.2,13.5,23.5,23.9,13.5,762,160,8,84,426,33,39,426,1.51,575,-1
7841,4,"Chiliotrichum_diffusum","Asteraceae","Shrub",0.27,-0.568636236,"Argentina","Rio Turbio - heath",51.575,-72.312,"Angela",747,3.7,9.7,4.9,3.6,14,-5.6,19.6,3.5,4.2,8,-1.2,500,57,34,15,152,106,120,122,1.26,30,-1
21927,220,"Pedicularis_flammea","Orobanchaceae","Herb",0.2,-0.698970004,"Greenland","disko island",69.25,-53.6,"Angela",150,-5.7,5.5,1.8,8,8.3,-20.7,29,1.2,-16.2,4.3,-16.2,305,38,16,30,106,52,87,52,1.01,32,1
10024,111,"Dalbergia_sp","Fabaceae - P","Herb",0.25,-0.602059991,"Republic of Congo","Congo - bai",2.16,16.153,"Angela",403,24.8,10.5,8,0.6,31.6,18.5,13.1,24.4,24.8,25.6,24.1,1649,224,43,40,603,177,352,504,4.26,1648,1
23197,51,"Piper_tucumanensis","Piperaceae","Tree",12,1.079181246,"Argentina","Tucuman - Yungas South",26.763,-65.333,"Angela",935,18.6,11.5,4.8,4.2,29.8,6,23.8,23.6,14.6,23.6,12.9,882,184,10,82,472,33,472,34,1.51,596,-1
32238,77,"Weinmannia_affinis","Cunoniaceae","Shrub/Tree",8,0.903089987,"Fiji","aot",17.447,178.917,"Laura",97,24.6,6.2,6.3,1.2,29.8,20.1,9.7,26.1,23,26.1,23,2660,382,103,41,1023,345,1023,345,4.5,1800,-1
10950,203,"Dryopteris_filix-mas","Dryopteridaceae","Fern",0.9,-0.045757491,"Sweden","Stockholm",58.953,17.61,"Angela",10,7,6.5,2.4,7.1,21.8,-4.8,26.6,15.3,1,16.4,-1.7,508,61,24,28,172,81,162,112,2.79,533,1
22657,56,"Phyllostylon_rhamnoides","Ulmaceae","Tree",24,1.380211242,"Argentina","Tucuman - Yungas North",23.747,-64.854,"Angela",737,19.8,12.9,5.2,3.9,30.7,6.2,24.5,23.4,14.4,24.2,14.4,793,162,4,89,455,20,439,20,2.42,476,-1
10945,222,"Dryas_octopetala","Rosaceae","Herb",0.02,-1.698970004,"Greenland","Zackenberg - hill",74.476,-20.629,"Angela",83,-11.1,7,2.1,9.3,6,-26.5,32.5,-4.3,-7.4,1.7,-21.4,252,27,11,22,76,40,60,68,2.6,4,1
4621,218,"Betula_pubescens","Betulaceae","Tree",8,0.903089987,"Norway","Norway",68.606,17.606,"Angela",44,1.2,6.3,2.6,6.2,14.5,-9.5,24,6,-0.6,9.6,-6.2,788,95,41,25,260,132,213,193,1.51,121,1
25283,164,"Quercus_agrifolia","Fagaceae","Tree",16,1.204119983,"USA","Jasper Ridge - Chaparral",37.4,-122.233,"Angela",150,13.8,11.3,5.5,3.3,24.2,4,20.2,9.6,17.7,18.1,9.6,598,120,2,87,311,9,13,311,1.51,223,1
22733,212,"Picea_glauca","Pinaceae","Tree",18,1.255272505,"USA","Alaska campus",64.86,-147.862,"Angela",688,-2.9,10.9,2.2,14.1,22.4,-26.7,49.1,14.7,-10.5,14.7,-21,301,54,8,57,144,31,144,47,2.51,317,1
20909,14,"Nothofagus_dombeyi","Fagaceae","Tree",35,1.544068044,"Argentina","Bariloche",41.242,-71.425,"Angela",1039,7,11.7,5.1,4.2,20.3,-2.6,22.9,1.7,12.4,12.4,1.7,972,175,28,56,443,106,106,443,4.14,691,-1
8910,141,"Coridothymus_capitatus","Lamiaceae","Shrub",0.3,-0.522878745,"Israel","Lehavim",31.356,34.835,"Angela",379,18.9,12,4.7,5,31.8,6.4,25.4,12.1,24.7,24.7,12.1,293,69,0,106,186,0,0,186,1.26,305,1
27858,23,"Sclerolaena_sp","Amaranthaceae","Shrub",0.2,-0.698970004,"Australia","Adelaide - Brookfield Chenopod",34.347,139.517,"Angela",99,16.2,13.4,5.1,4.5,30.7,4.8,25.9,11.1,21.8,22,10.4,276,31,15,23,84,49,51,80,2.14,773,-1
32695,137,"Dioon_edule","Zamiaceae","Shrub",0.6,-0.22184875,"Mexico","Linares - Puenta Viejo",24.749,-99.799,"Angela",736,20.7,14.3,5.5,4,32.9,7.2,25.7,23.5,15.2,25.4,15.2,703,149,14,71,325,54,268,54,2.26,844,1
1396,159,"Acer_pennsylvanicum","Sapindaceae","Tree",8,0.903089987,"USA","Twin springs, Virginia",36.817,-82.464,"Angela",501,12.7,13,3.8,7.8,29.6,-4.5,34.1,20.6,13.4,22.4,2.3,1121,117,71,12,322,240,310,265,4.07,1325,1
4175,10,"Baccharis_divaricata","Asteraceae","Shrub",0.5,-0.301029996,"Argentina","Puerto Madryn - dune",42.769,-64.101,"Angela",66,13,10.3,4.7,4.2,24.5,2.7,21.8,13.7,17,18.3,7.4,214,28,9,35,77,36,37,55,1.01,404,-1
18172,165,"Lessingia_sp","Asteraceae","Herb",0.09,-1.045757491,"USA","Jasper Ridge - Serpentine",37.4,-122.224,"Angela",179,13.7,11.4,5.5,3.3,24.4,4,20.4,9.6,17.7,18,9.6,630,127,2,86,328,9,13,328,1.51,223,1
22732,211,"Picea_mariana","Pinaceae","Tree",13.5,1.130333768,"USA","Alaska - Bonanza",64.769,-148.283,"Angela",382,-4.3,10.7,2.2,13.9,21,-27.1,48.1,13.2,-12.1,13.2,-21.9,296,57,7,68,157,28,157,41,2.51,363,1
12588,121,"Faramea_occidentalis","Rubiaceae","Tree",16,1.204119983,"Panama","Panama - BCI",9.15,-79.849,"Angela",165,26.5,6.8,7.3,0.7,31.4,22.2,9.2,25.8,26.6,27.5,25.6,2542,383,27,56,1004,132,397,975,4.51,2146,1
12101,61,"Eucalyptus_platyphylla","Myrtaceae","Tree",10,1,"Australia","Townsville savanna",19.337,146.755,"Angela",79,23.9,9.9,5.2,3.1,31.7,12.9,18.8,27.1,20.3,27.3,19.4,1027,251,9,101,668,33,626,42,4.14,1012,-1
25284,163,"Quercus_agrifolia","Fagaceae","Tree",25,1.397940009,"USA","Jasper Ridge - Oak forest",37.4,-122.236,"Angela",84,13.8,11.2,5.5,3.3,24.1,4,20.1,9.6,17.7,18,9.6,603,121,2,86,313,9,13,313,1.51,223,1
14192,29,"Grevillea_speciosa","Proteaceae","Shrub",1.5,0.176091259,"Australia","Kuringai - Challenger",33.595,151.276,"Angela",151,16.9,9.8,4.8,3.8,26,5.7,20.3,21.3,12.4,21.4,11.7,1313,160,65,29,458,213,392,283,4.51,1435,-1
12046,43,"Eucalyptus_sp2","Myrtaceae","Tree",20,1.301029996,"Australia","Armidale - Goonoowigal",29.815,151.121,"Angela",686,15.3,14.5,4.9,5.3,29.3,0.1,29.2,21.8,8.2,21.8,8.2,780,105,37,33,287,133,287,133,3.26,1272,-1
21931,221,"Pedicularis_hirsuta","Orobanchaceae","Herb",0.08,-1.096910013,"Greenland","Zackenberg - salix",74.474,-20.536,"Angela",37,-10.5,7,2.1,9.3,6.5,-25.8,32.3,-3.7,-6.8,2.3,-20.7,236,26,10,24,73,36,57,63,2.6,4,1
32699,49,"Corymbia_maculata","Myrtaceae","Tree",30,1.477121255,"Australia","Toowoomba",28.085,151.729,"Angela",643,17,13.7,5.1,4.8,29.5,2.8,26.7,22.6,10.5,22.6,10.5,706,92,32,35,258,111,258,111,2.51,1119,-1
22061,93,"Pericopsis_angolensis","Fabaceae - P","Tree",8,0.903089987,"Zambia","Zambia - miombo",13.249,30.28,"Angela",1506,18.6,12.4,5.6,2.4,29.3,7.5,21.8,20.2,15,20.9,15,1099,270,0,118,790,0,383,0,2.51,684,-1
31433,216,"Vaccinium_uliginosum","Ericaceae","Shrub",0.06,-1.22184875,"Sweden","Abisko - Paddus",68.324,18.843,"Angela",554,-1,7,2.4,7.5,14.6,-14.1,28.7,8.1,-6.7,9.1,-10.1,436,66,19,38,172,65,162,89,1.24,61,1
10460,12,"Dicksonia_antarctica","Dicksoniaceae","Shrub",3,0.477121255,"Australia","Mt Field, Tasmania",42.679,146.669,"Angela",704,7.9,8.8,4.8,3.2,18.2,0,18.2,4.2,12,12,3.7,1156,117,54,20,347,200,200,322,2.96,643,-1
17473,215,"Kobresia_sp","Cyperaceae","Herb",0.2,-0.698970004,"Greenland","Kangerlussuaq - dry",66.973,-50.568,"Angela",75,-5.1,8.2,2.3,10,14.1,-21.2,35.3,6.3,-13.7,8.1,-16.6,257,31,11,33,92,40,84,45,1.29,65,1
5189,129,"Brosimum_alicastrum","Moraceae","Tree",40,1.602059991,"Mexico","Chajul",16.106,-90.987,"Angela",41,25.9,11.3,6.9,1.5,34,17.8,16.2,26.6,25.8,27.5,23.7,3048,515,57,68,1422,195,680,304,4.51,1809,1
1354,3,"Acaena_antarctica","Rosaceae","Herb",0.1,-1,"Argentina","Rio Turbio - Nothofagus",51.578,-72.315,"Angela",702,3.7,9.7,4.9,3.6,14,-5.6,19.6,3.5,4.2,8,-1.2,500,57,34,15,152,106,120,122,1.26,30,-1
9076,193,"Corylus_cornuta","Betulaceae","Shrub",4.5,0.653212514,"USA","Oregon - McDun",44.6,-123.334,"Angela",179,10.8,11.8,4.4,5.2,27,0.3,26.7,4.9,17.4,17.6,4.5,1208,217,13,69,601,68,75,560,2.51,572,1
25249,94,"Quararibea_wittii","Malvaceae","Tree",15,1.176091259,"Peru","Los Amigos floodplain",12.567,-70.093,"Angela",217,24.9,10.5,7.4,1,31.5,17.4,14.1,25.6,23.3,25.7,23.3,3273,471,113,46,1310,381,1001,381,4.26,1475,-1
31033,24,"Triodia_irritans","Poaceae","Herb",0.4,-0.397940009,"Australia","Adelaide - Brookfield Mallee",34.32,139.503,"Angela",95,16.2,13.3,5.1,4.6,30.7,4.8,25.9,13,21.9,22,10.5,272,30,15,23,83,49,50,79,2.14,773,-1
12092,20,"Eucalyptus_sp1","Myrtaceae","Shrub",3,0.477121255,"Australia","Adelaide - Cox's scrub",35.341,138.74,"Angela",177,14.9,10,5.1,3.5,25.9,6.4,19.5,10.5,19.3,19.3,10.5,682,96,22,47,272,75,75,272,2.14,695,-1
30007,65,"Syzygium_nidie","Myrtaceae","Tree",25,1.397940009,"Fiji","ak",18.383,178.142,"Laura",30,24.6,6.3,6.1,1.4,30,19.7,10.3,26,22.9,26.3,22.7,2674,345,132,32,943,414,925,431,4.26,1795,-1
12097,16,"Eucalyptus_sp5","Myrtaceae","Tree",13,1.113943352,"Australia","Bunyip - Melbourne",38.01,145.62,"Angela",164,13.6,10.5,4.8,3.7,25.7,4.2,21.5,11.1,18.4,18.4,8.8,1016,107,52,20,313,176,176,275,2.71,793,-1
5003,82,"Brackenridgea_nitida","Ochnaceae","Shrub/Tree",15,1.176091259,"Fiji","abrambi",16.956,179.069,"Laura",5,25.5,6.2,6.6,1.1,30.4,21.1,9.3,26.8,24,26.8,24,2462,356,83,45,1007,284,1007,284,4.26,1886,-1
18700,21,"Lomandra_sp","Laxmanniaceae","Herb",0.4,-0.397940009,"Australia","Adelaide - ferries",35.235,139.132,"Angela",52,15.6,11.7,5.3,3.7,27.8,5.8,22,10.9,20.2,20.3,10.9,384,45,18,29,127,59,60,127,2.17,661,-1
12098,15,"Eucalyptus_sp6","Myrtaceae","Tree",15,1.176091259,"Australia","Green's Bush - Melbourne",38.43,144.922,"Angela",165,13.5,7.5,4.5,3.2,22.8,6.2,16.6,10.2,17.6,17.6,9.5,915,101,45,25,289,150,150,287,4.04,1023,-1
29142,100,"Sorghum_(intrans?)","Poaceae","Herb",1.6,0.204119983,"Australia","Howard Springs, Darwin",12.494,131.108,"Angela",26,27.3,10.5,6,1.7,34.6,17.2,17.4,28.1,24.7,29.2,24.7,1505,371,1,104,970,7,408,7,4.07,956,-1
1816,92,"Aframomum_biauriculatum","Zingiberaceae","Herb",1,0,"Zambia","Zambia - Mateshi",13.253,30.047,"Angela",1388,19.1,12.7,5.5,2.6,30.1,7.3,22.8,20.9,15.1,21.7,15.1,1085,265,0,118,778,0,383,0,4.03,652,-1
11377,217,"Empetrum_nigrum","Ericaceae","Shrub",0.15,-0.823908741,"Sweden","Abisko - forest",68.329,18.836,"Angela",521,-0.7,7,2.4,7.4,14.8,-13.7,28.5,8.3,-6.4,9.3,-9.7,422,64,18,39,168,62,158,85,1.24,61,1
26985,214,"Salix_glabra","Salicaceae","Shrub",0.6,-0.22184875,"Greenland","Kangerlussuaq - wet",66.973,-50.569,"Angela",65,-5.1,8.2,2.3,10,14.1,-21.2,35.3,6.3,-13.7,8.1,-16.6,257,31,11,33,92,40,84,45,1.29,65,1
10658,138,"Diospyros_texana","Ebenaceae","Shrub",4,0.602059991,"Mexico","Linares - thornscrub",24.786,-99.515,"Angela",354,22.6,13.9,4.8,5.1,36.2,7.6,28.6,26,15.6,28.5,15.6,803,154,20,66,338,68,285,68,2.26,1044,1
29609,9,"Stipa_speciosa","Poaceae","Herb",0.25,-0.602059991,"Argentina","Puerto Madryn - steppe",42.79,-64.092,"Angela",76,13,10.2,4.6,4.3,24.4,2.6,21.8,13.7,17,18.3,7.4,214,28,9,35,77,36,37,55,1.01,404,-1
7055,95,"Cecropia_sp","Urticaceae","Tree",20,1.301029996,"Peru","Los Amigos - successional",12.566,-70.105,"Angela",217,24.8,10.5,7.3,1,31.4,17.2,14.2,25.5,23.2,25.6,23.2,3283,472,113,45,1313,383,1004,383,4.26,1475,-1
11187,75,"Elaeocarpus_chelonimorphus","Elaeocarpaceae","Tree",20,1.301029996,"Fiji","abkt",17.552,178.873,"Laura",6,25,6.2,6.3,1.2,30.2,20.4,9.8,26.5,23.3,26.5,23.3,2662,386,103,40,1008,350,1008,350,4.5,1800,-1
3971,11,"Atherosperma_moschatum","Atherospermataceae","Tree",30,1.477121255,"Australia","Tasmania",42.683,146.35,"Angela",740,7.5,8.4,4.8,3,17.5,0.1,17.4,4,11.4,11.4,3.6,1720,182,72,23,530,280,280,495,2.96,643,-1
8168,144,"Cistus_salvifolius","Cistaceae","Shrub",1.6,0.204119983,"Israel","Hanadiv",32.555,34.938,"Angela",115,19.9,9.7,4.4,4.9,30.7,8.7,22,13.6,25.3,25.7,13.6,598,159,0,115,408,0,2,408,1.01,359,1
12528,19,"Fabiana_sp","Solanaceae","Shrub",0.5,-0.301029996,"Argentina","Mendoza - Payunia",36.25,-68.824,"Angela",1502,10.9,16.3,5.2,5.5,27.7,-3.6,31.3,17.3,6.9,18,3.8,208,23,13,17,65,44,61,47,1.89,522,-1
20426,5,"Mulinum_spinosum","Apiaceae","Herb",0.6,-0.22184875,NA,"Patagonia",45.417,-70,"Angela",500,9.6,11.2,4.6,4.8,22.6,-1.3,23.9,3.9,15.6,15.6,3.3,174,23,7,35,65,25,25,57,2.42,505,-1
12163,28,"Euclea_undulata","Ebenaceae","Shrub",1.8,0.255272505,"South Africa","Stellenbosch - Karoo",33.609,19.457,"Angela",394,16.5,13.8,5.4,4,29.6,4.4,25.2,11.3,21.4,21.4,11.3,546,87,14,60,253,48,48,253,1.51,557,-1
12094,8,"Eucalyptus_oblongifolia","Myrtaceae","Tree",30,1.477121255,"Australia","Huon Rd, Tasmania",42.921,147.275,"Angela",346,9.9,8.8,5,3,19.6,2.2,17.4,6.5,13.8,13.8,5.9,1037,115,63,17,311,205,205,296,2.82,743,-1
12605,145,"Ferocactus_wislizeni","Cactaceae","Shrub",1.35,0.130333768,"USA","Tucson",32.6,-111.233,"Angela",690,20.5,17.2,4.6,7.4,39.2,2.6,36.6,29.5,23.8,30,11.4,354,57,8,50,143,29,117,97,1.26,349,1
32674,102,"_7014",NA,NA,13,1.113943352,"Peru","Manu",12.183,-70.917,"Angela",350,24.8,10.8,7.6,0.8,31.4,17.3,14.1,25.2,23.6,25.6,23.6,2920,397,99,43,1125,336,891,350,4.26,1461,-1
7904,46,"Chloris_guiana??","Poaceae","Herb",0.5,-0.301029996,"South Africa","Zululand - ledube",28.234,32.017,"Angela",289,20.5,10.2,5.8,2.4,28.5,11,17.5,23.4,17.2,23.4,17.2,926,129,32,43,347,104,344,104,3.35,525,-1
18175,26,"Leucadendron_sp","Proteaceae","Shrub",0.6,-0.22184875,"South Africa","Stellenbosch - fynbos",33.992,18.975,"Angela",387,15.7,11.2,5.3,3.5,27.3,6.3,21,12.2,20.2,20.3,11.5,1052,160,29,59,468,95,98,459,2.01,517,-1
19642,50,"Maytenus_peduncularis","Celastraceae","Tree",9,0.954242509,"South Africa","Zululand - forest",28.072,32.039,"Angela",267,19.4,10.2,6,2.3,27.2,10.3,16.9,22.1,16.5,22.1,16.2,964,139,28,49,372,97,371,97,3.35,525,-1
21730,58,"Paraneurachne_muelleri","Poaceae","Herb",0.5,-0.301029996,"Australia","Kunoth Paddock - Alice Springs",23.533,133.748,"Angela",713,20.4,16,4.8,6.1,36.3,3.1,33.2,26.6,14.2,27.5,12.1,310,41,11,42,121,40,121,46,1.01,605,-1
29331,48,"Spirostachys_africanus","Euphorbiaceae","Shrub",4.5,0.653212514,"South Africa","Zululand - Mbuzane",28.221,31.794,"Angela",161,21,11,5.9,2.5,29.3,10.7,18.6,23.9,17.4,23.9,17.4,834,116,25,47,321,84,309,84,3.35,525,-1
8249,76,"Cleistocalyx_eugenioides","Myrtaceae","Tree",25,1.397940009,"Fiji","abngau",17.472,178.847,"Laura",41,25,6.3,6.4,1.2,30.1,20.4,9.7,26.4,23.3,26.4,23.3,2616,379,100,41,1012,335,1012,335,4.5,1800,-1
15669,97,"Hevea_guianensis","Euphorbiaceae","Tree",26,1.414973348,"Peru","Los Amigos -terrace",12.552,-70.111,"Angela",237,24.8,10.5,7.3,1,31.4,17.2,14.2,25.4,23.2,25.6,23.2,3283,471,113,45,1312,383,1004,383,4.26,1475,-1
12906,194,"Fragaria_chiloensis","Rosaceae","Herb",0.05,-1.301029996,"USA","Oregon - Yaquina Head",44.667,-124.072,"Angela",324,10.6,7.7,5,2.8,18.9,3.5,15.4,7.6,14,14.4,7.2,1936,315,27,62,900,133,134,848,2.51,572,1
23975,101,"Pongamia_pinnata","Fabaceae - P","Tree",9,0.954242509,"Australia","Darwin - East point",12.406,130.82,"Angela",11,27.5,9.6,6.2,1.5,33.9,18.5,15.4,28.2,25.2,29.1,25.2,1663,428,1,106,1091,10,428,10,4.07,956,-1
11645,57,"Eragrostis_eriopoda","Poaceae","Herb",0.7,-0.15490196,"Australia","Kunoth Paddock - Alice Springs",23.533,133.748,"Angela",713,20.4,16,4.8,6.1,36.3,3.1,33.2,26.6,14.2,27.5,12.1,310,41,11,42,121,40,121,46,1.01,605,-1
24274,62,"Pouteria_sericea","Sapotaceae","Tree",12,1.079181246,"Australia","Townsville Vine Thicket",19.332,146.773,"Angela",99,23.9,9.9,5.2,3.1,31.6,12.8,18.8,27,20.2,27.2,19.3,1036,253,9,101,674,33,631,43,4.14,1012,-1
18073,83,"Lepironia_articulata","Cyperaceae","Herb",2.5,0.397940009,"Fiji","t",16.858,179.967,"Laura",265,24.3,6.1,6.5,1.1,29.3,20,9.3,25.6,22.8,25.6,22.8,2567,351,95,42,1009,324,1009,324,4.5,1800,-1
18176,31,"Leucadendron_corymbosum","Proteaceae","Shrub",3,0.477121255,"South Africa","Stellenbosch - renosterveld",33.448,19.048,"Angela",89,17.9,13.5,5.3,4.3,31,5.7,25.3,13.2,23.2,23.2,12.4,583,94,11,63,271,48,48,266,1.51,633,-1
11723,53,"Eremophila_forrestii","Scrophulariaceae","Shrub",2,0.301029996,"Australia","WA",24.65,113.7,"Angela",7,22.3,10.7,4.6,4.1,33.8,10.8,23,18.2,23.1,27.6,17,216,50,0,83,127,5,54,108,1.51,464,-1
9851,178,"Cyperus_houghtonii","Cyperaceae","Herb",0.6,-0.22184875,"USA","Indiana Dunes",41.617,-86.95,"Michelle",200,9.7,10.7,2.8,9.7,28.6,-9.5,38.1,21.6,-3.3,21.6,-3.3,976,104,44,23,299,165,299,165,3.26,1131,1
4765,27,"Blandfordia_nobilis","Blandfordiaceae","Herb",0.6,-0.22184875,"Australia","Kuringai Chase, Sydney",33.65,151.2,"Michelle",157,16.8,10,4.8,3.9,26.1,5.5,20.6,21.2,12.3,21.4,11.5,1283,157,63,29,450,208,385,279,4.14,1563,-1
155,54,"Acacia_coriacea","Fabaceae - M","Shrub",4,0.602059991,"Australia","Central Australia",23.8,133.833,"Michelle",553,20.9,16.3,4.8,6,37,3.6,33.4,28.1,14.8,28.1,12.8,278,37,9,42,109,35,109,42,1.32,756,-1
20827,118,"Nephrolepis_hirsutula","Oleandraceae","Fern",1,0,NA,"Marshall Islands",9,168,"Laura",2,27.7,4.8,8.8,0.2,30.6,25.2,5.4,27.9,27.5,27.9,27.5,2585,300,82,34,870,305,855,405,NA,NA,1
3942,69,"Astronidium_saulae","Melastomataceae","Tree",10,1,"Fiji","Viti Levu",17.8,178,"Laura",1108,19.3,6.3,5.8,1.5,25.3,14.6,10.7,21.1,17.4,21.1,17.3,3191,412,160,31,1136,521,1136,523,4.26,1795,-1
29670,103,"Stylogyne_ardisioides","Myrsinaceae",NA,0.3,-0.522878745,"Peru","Manu",12.183,-70.55,"Angela",386,24.5,10.8,7.4,0.9,31.2,16.7,14.5,25.1,23.2,25.3,23.1,3015,416,99,45,1177,340,928,359,4.26,1405,-1
15562,106,"Heritiera_littoralis","Malvaceae","Tree",20,1.301029996,"Australia","Christmas Island",10.417,105.667,"Laura",2,26.4,5,7.4,0.6,29.9,23.2,6.7,26.8,25.7,27.1,25.5,1704,309,16,66,806,92,659,135,4.51,2296,-1
20980,123,"Ochrosia_oppositifolia","Apocynaceae","Tree",15,1.176091259,"Micronesia","Yap",9.5,138.167,"Laura",15,27.2,6.8,9.1,0.2,31.1,23.7,7.4,27.2,27.2,27.5,26.9,3031,368,144,31,1055,436,689,489,NA,NA,1
9652,107,"Cycas_campestris","Cycadaceae","Shrub",1.5,0.176091259,"Papua New Guinea","Motupore Island",9.5,147.267,"Laura",30,26.8,8.3,7.6,0.8,32.5,21.6,10.9,27.5,25.7,27.7,25.6,1184,201,33,60,556,117,486,123,3.26,907,-1
30346,173,"Thalictrum_fendleri","Ranunculaceae","Herb",0.207,-0.684029655,"USA","Rockies",38.966,-106.987,"Angela",2966,0.2,16.9,4,8.6,21.3,-20.8,42.1,10.5,4,11,-10.8,526,53,30,16,148,105,134,144,2.24,339,1
8098,81,"Cinnamomum_fitianum","Lauraceae","Tree",15,1.176091259,"Fiji","abt",17.081,179.069,"Laura",2,25.4,6.2,6.5,1.1,30.4,20.9,9.5,26.8,23.9,26.8,23.9,2494,362,88,44,1003,298,1003,298,4.26,1886,-1
28140,72,"Senna_alata","Fabaceae - C","Tree",5,0.698970004,"Fiji","ao",17.742,178.392,"Laura",47,24.8,6.3,6.3,1.3,30,20.1,9.9,26.1,23,26.3,23,2770,381,118,37,1006,391,1005,391,4.51,1864,-1
27628,73,"Schefflera_victoriae","Araliaceae","Tree",6,0.77815125,"Fiji","ab",17.667,178.167,"Laura",312,23.5,6.3,6.2,1.3,28.9,18.8,10.1,25.1,21.7,25.1,21.7,2814,379,126,35,1027,413,1027,413,4.26,1795,-1
32686,55,"Corymbia_opaca","Myrtaceae","Shrub",4,0.602059991,"Australia","Alice - the gap",23.795,133.863,"Angela",701,20.9,16.3,4.8,6,37,3.6,33.4,28.1,14.8,28.1,12.7,278,37,9,42,109,35,109,42,1.32,756,-1
1633,78,"Acsmithia_vitiensis","Cunoniaceae","Shrub/Tree",4,0.602059991,"Fiji","AOB",17.356,178.675,"Laura",3,25,6.3,6.4,1.2,30.2,20.4,9.8,26.5,23.4,26.5,23.4,2664,384,103,40,1011,349,1011,349,4.51,1864,-1
10575,80,"Dillenia_biflora","Dilleniaceae","Tree",15,1.176091259,"Fiji","abot",17.231,178.998,"Laura",2,25.4,6.2,6.5,1.1,30.4,20.9,9.5,26.8,23.9,26.8,23.9,2494,362,88,44,1003,298,1003,298,4.26,1886,-1
30275,85,"Terminalia_crebrifolia","Combretaceae","Tree",22,1.342422681,"Fiji","b",16.583,179.242,"Laura",611,22.5,6.1,6.4,1.1,27.7,18.3,9.4,23.8,21,23.8,21,2865,383,111,40,1110,374,1110,374,4.5,1800,-1
4419,174,"Baptisia_bracteata","Fabaceae - P","Herb",0.394827586,-0.403592511,"USA","Kansas",39.083,-96.583,"Angela",407,12,12.7,3,10,32.3,-9.1,41.4,22.1,-1.4,24.5,-1.4,872,137,20,51,355,71,326,71,4.14,1414,1
1395,154,"Acer_rubrum","Sapindaceae","Tree",35,1.544068044,"USA","Colorado",35.8,-89.9,"Angela",71,15.5,11.4,3.2,8.6,32.9,-2.6,35.5,15.6,21.5,26.1,3.8,1262,129,66,18,382,249,268,325,3.14,1266,1
29888,30,"Syncarpia_glomulifera","Myrtaceae","Tree",25,1.397940009,"Australia","Kuringai - Diatreme",33.578,151.292,"Angela",188,17,9.7,4.8,3.8,26.1,5.9,20.2,21.4,12.6,21.5,11.9,1307,159,64,29,455,212,391,280,4.51,1435,-1
18226,70,"Leucopogon_septentrionalis","Ericaceae","Shrub/Tree",5,0.698970004,"Fiji","abk",17.783,178.508,"Laura",30,24.8,6.3,6.3,1.3,30.1,20.1,10,26.2,23.2,26.4,23,2803,390,117,37,1017,389,1013,393,4.51,1864,-1
25840,38,"Regelia_inops","Myrtaceae","Shrub",2,0.301029996,"Australia","Perth - Melaleuca Park",31.689,115.886,"Angela",60,18.3,11.5,4.9,4.1,31.7,8.5,23.2,13.5,23.5,23.9,13.5,762,160,8,84,426,33,39,426,1.51,575,-1
12621,4,"Festuca_gracillima","Poaceae","Herb",0.14,-0.853871964,"Argentina","Rio Turbio - heath",51.575,-72.312,"Angela",747,3.7,9.7,4.9,3.6,14,-5.6,19.6,3.5,4.2,8,-1.2,500,57,34,15,152,106,120,122,1.26,30,-1
9645,13,"Cyathodes_fasciculata","Ericaceae","Shrub",5,0.698970004,"New Zealand","Nelson",42,173,"Angela",1650,4.2,8.5,4.4,3.7,14.8,-4.4,19.2,-0.1,8.9,8.9,-0.7,2043,204,105,16,582,388,388,580,4.26,1102,-1
12778,79,"Ficus_bambusaefolia","Moraceae","Shrub/Tree",3,0.477121255,"Fiji","at",17.329,178.983,"Laura",2,25.2,6.2,6.4,1.2,30.2,20.6,9.6,26.6,23.6,26.6,23.6,2576,375,96,42,1003,325,1003,325,4.5,1800,-1
24457,71,"Pouteria_vitiensis","Sapotaceae","Tree",25,1.397940009,"Fiji","abko",17.758,178.577,"Laura",13,24.9,6.3,6.3,1.3,30.1,20.1,10,26.5,23.3,26.5,23.2,2767,390,113,38,1012,379,1012,381,4.51,1864,-1
2478,122,"Alseis_blackiana","Rubiaceae","Tree",25,1.397940009,"Panama","BCI",9.167,-79.85,"Angela",94,26.3,6.7,7.3,0.7,31.2,22.1,9.1,25.7,26.4,27.3,25.5,2607,390,29,56,1026,138,407,705,4.51,2146,1
9078,203,"Corylus_avellana","Betulaceae","Tree",10,1,"Sweden","Stockholm",58.953,17.61,"Angela",10,7,6.5,2.4,7.1,21.8,-4.8,26.6,15.3,1,16.4,-1.7,508,61,24,28,172,81,162,112,2.79,533,1
25274,151,"Quercus_calliprinos","Fagaceae","Shrub",3.5,0.544068044,"Israel","Adulam",34.935,34.935,"Angela",358,4.8,7.1,2.2,8.7,21.8,-10.2,32,10.6,-5.7,16.1,-6.3,599,77,26,34,217,90,185,105,1.01,386,1
15488,137,"Helietta_parvifolia","Rutaceae","Shrub",5,0.698970004,"Mexico","Linares - Puenta Viejo",24.749,-99.799,"Angela",736,20.7,14.3,5.5,4,32.9,7.2,25.7,23.5,15.2,25.4,15.2,703,149,14,71,325,54,268,54,2.26,844,1
17982,164,"Lepechinia_calycina","Lamiaceae","Shrub",1.6,0.204119983,"USA","Jasper Ridge - Chaparral",37.4,-122.233,"Angela",150,13.8,11.3,5.5,3.3,24.2,4,20.2,9.6,17.7,18.1,9.6,598,120,2,87,311,9,13,311,1.51,223,1
18392,165,"Linanthus_sp","Polemoniaceae","Herb",0.11,-0.958607315,"USA","Jasper Ridge - Serpentine",37.4,-122.224,"Angela",179,13.7,11.4,5.5,3.3,24.4,4,20.4,9.6,17.7,18,9.6,630,127,2,86,328,9,13,328,1.51,223,1
32736,159,"Acer_rubrum","Sapindaceae","Tree",19,1.278753601,"USA","Twin springs, Virginia",36.817,-82.464,"Angela",501,12.7,13,3.8,7.8,29.6,-4.5,34.1,20.6,13.4,22.4,2.3,1121,117,71,12,322,240,310,265,4.07,1325,1
1762,163,"Aesculus_californica","Sapindaceae","Tree",16,1.204119983,"USA","Jasper Ridge - Oak forest",37.4,-122.236,"Angela",84,13.8,11.2,5.5,3.3,24.1,4,20.1,9.6,17.7,18,9.6,603,121,2,86,313,9,13,313,1.51,223,1
26205,77,"Richella_monosperma","Annonaceae","Tree",15,1.176091259,"Fiji","aot",17.447,178.917,"Laura",97,24.6,6.2,6.3,1.2,29.8,20.1,9.7,26.1,23,26.1,23,2660,382,103,41,1023,345,1023,345,4.5,1800,-1
4618,216,"Betula_nana","Betulaceae","Shrub",0.3,-0.522878745,"Sweden","Abisko - Paddus",68.324,18.843,"Angela",554,-1,7,2.4,7.5,14.6,-14.1,28.7,8.1,-6.7,9.1,-10.1,436,66,19,38,172,65,162,89,1.24,61,1
22103,29,"Persoonia_lanceolata","Proteaceae","Shrub",2.4,0.380211242,"Australia","Kuringai - Challenger",33.595,151.276,"Angela",151,16.9,9.8,4.8,3.8,26,5.7,20.3,21.3,12.4,21.4,11.7,1313,160,65,29,458,213,392,283,4.51,1435,-1
26163,212,"Ribes_sp","Grossulariaceae","Shrub",0.7,-0.15490196,"USA","Alaska campus",64.86,-147.862,"Angela",688,-2.9,10.9,2.2,14.1,22.4,-26.7,49.1,14.7,-10.5,14.7,-21,301,54,8,57,144,31,144,47,2.51,317,1
30761,121,"Trichilia_tuberculata","Meliaceae","Tree",25,1.397940009,"Panama","Panama - BCI",9.15,-79.849,"Angela",165,26.5,6.8,7.3,0.7,31.4,22.2,9.2,25.8,26.6,27.5,25.6,2542,383,27,56,1004,132,397,975,4.51,2146,1
24987,51,"Psychotria_carthagenensis","Rubiaceae","Shrub",4.5,0.653212514,"Argentina","Tucuman - Yungas South",26.763,-65.333,"Angela",935,18.6,11.5,4.8,4.2,29.8,6,23.8,23.6,14.6,23.6,12.9,882,184,10,82,472,33,472,34,1.51,596,-1
21929,220,"Pedicularis_lanata","Orobanchaceae","Herb",0.2,-0.698970004,"Greenland","disko island",69.25,-53.6,"Angela",150,-5.7,5.5,1.8,8,8.3,-20.7,29,1.2,-16.2,4.3,-16.2,305,38,16,30,106,52,87,52,1.01,32,1
32313,37,"Xanthorrhoea_preissii","Xanthorrhoeaceae","Shrub",1.5,0.176091259,"Australia","Perth - Darling Scarp",32.02,116.044,"Angela",209,17,11.2,4.6,4.5,31.2,7.2,24,11.7,22.7,23.1,11.7,1003,213,13,85,566,50,54,566,1.93,708,-1
23,193,"Abies_grandis","Pinaceae","Tree",35,1.544068044,"USA","Oregon - McDun",44.6,-123.334,"Angela",179,10.8,11.8,4.4,5.2,27,0.3,26.7,4.9,17.4,17.6,4.5,1208,217,13,69,601,68,75,560,2.51,572,1
26984,215,"Salix_glauca","Salicaceae","Shrub",1.5,0.176091259,"Greenland","Kangerlussuaq - dry",66.973,-50.568,"Angela",75,-5.1,8.2,2.3,10,14.1,-21.2,35.3,6.3,-13.7,8.1,-16.6,257,31,11,33,92,40,84,45,1.29,65,1
29076,218,"Sorbus_aucuparia","Rosaceae","Tree",8,0.903089987,"Norway","Norway",68.606,17.606,"Angela",44,1.2,6.3,2.6,6.2,14.5,-9.5,24,6,-0.6,9.6,-6.2,788,95,41,25,260,132,213,193,1.51,121,1
25017,15,"Pteridium_esculentum","Dennstaedtiaceae","Fern",1.8,0.255272505,"Australia","Green's Bush - Melbourne",38.43,144.922,"Angela",165,13.5,7.5,4.5,3.2,22.8,6.2,16.6,10.2,17.6,17.6,9.5,915,101,45,25,289,150,150,287,4.04,1023,-1
12089,24,"Eucalyptus_socialis","Myrtaceae","Tree",6,0.77815125,"Australia","Adelaide - Brookfield Mallee",34.32,139.503,"Angela",95,16.2,13.3,5.1,4.6,30.7,4.8,25.9,13,21.9,22,10.5,272,30,15,23,83,49,50,79,2.14,773,-1
30246,100,"Terminalia_ferdinandiana","Combretaceae","Tree",7,0.84509804,"Australia","Howard Springs, Darwin",12.494,131.108,"Angela",26,27.3,10.5,6,1.7,34.6,17.2,17.4,28.1,24.7,29.2,24.7,1505,371,1,104,970,7,408,7,4.07,956,-1
18274,129,"Licania_platypus","Chrysobalanaceae","Tree",50,1.698970004,"Mexico","Chajul",16.106,-90.987,"Angela",41,25.9,11.3,6.9,1.5,34,17.8,16.2,26.6,25.8,27.5,23.7,3048,515,57,68,1422,195,680,304,4.51,1809,1
141,104,"Acacia_aulacocarpa","Fabaceae - M","Shrub/Tree",12,1.079181246,NA,"Melville Island",11.5,130.967,"Angela",44,27.1,9.4,6.3,1.4,33.2,18.5,14.7,27.7,24.8,28.5,24.8,1664,355,2,100,1032,12,453,12,4.04,969,-1
6529,143,"Carnegiea_gigantea","Cactaceae","Shrub",8,0.903089987,"USA","Tucson - Sonoran desert",32.31,-110.739,"Angela",971,18.9,15.7,4.6,6.9,36.3,2.5,33.8,27.2,22.2,27.9,10.4,380,71,6,61,176,24,144,98,1.01,477,1
11132,49,"Einadia_hastata","Amaranthaceae","Shrub",0.25,-0.602059991,"Australia","Toowoomba",28.085,151.729,"Angela",643,17,13.7,5.1,4.8,29.5,2.8,26.7,22.6,10.5,22.6,10.5,706,92,32,35,258,111,258,111,2.51,1119,-1
29156,94,"Sorocea_pileata","Moraceae","Tree",19,1.278753601,"Peru","Los Amigos floodplain",12.567,-70.093,"Angela",217,24.9,10.5,7.4,1,31.5,17.4,14.1,25.6,23.3,25.7,23.3,3273,471,113,46,1310,381,1001,381,4.26,1475,-1
9641,65,"Cyathocalyx_insularis","Annonaceae","Tree",20,1.301029996,"Fiji","ak",18.383,178.142,"Laura",30,24.6,6.3,6.1,1.4,30,19.7,10.3,26,22.9,26.3,22.7,2674,345,132,32,943,414,925,431,4.26,1795,-1
11374,211,"Empetrum_nigrum","Ericaceae","Shrub",0.09,-1.045757491,"USA","Alaska - Bonanza",64.769,-148.283,"Angela",382,-4.3,10.7,2.2,13.9,21,-27.1,48.1,13.2,-12.1,13.2,-21.9,296,57,7,68,157,28,157,41,2.51,363,1
10946,221,"Dryas_octopetala","Rosaceae","Herb",0.015,-1.823908741,"Greenland","Zackenberg - salix",74.474,-20.536,"Angela",37,-10.5,7,2.1,9.3,6.5,-25.8,32.3,-3.7,-6.8,2.3,-20.7,236,26,10,24,73,36,57,63,2.6,4,1
19717,21,"Melaleuca_uncinata","Myrtaceae","Shrub",4,0.602059991,"Australia","Adelaide - ferries",35.235,139.132,"Angela",52,15.6,11.7,5.3,3.7,27.8,5.8,22,10.9,20.2,20.3,10.9,384,45,18,29,127,59,60,127,2.17,661,-1
31945,3,"Viola_magellanica","Violaceae","Herb",0.05,-1.301029996,"Argentina","Rio Turbio - Nothofagus",51.578,-72.315,"Angela",702,3.7,9.7,4.9,3.6,14,-5.6,19.6,3.5,4.2,8,-1.2,500,57,34,15,152,106,120,122,1.26,30,-1
11224,75,"Elatostema_nemorosum","Urticaceae","Herb",2,0.301029996,"Fiji","abkt",17.552,178.873,"Laura",6,25,6.2,6.3,1.2,30.2,20.4,9.8,26.5,23.3,26.5,23.3,2662,386,103,40,1008,350,1008,350,4.5,1800,-1
29382,10,"Sporobolus_rigens","Poaceae","Herb",0.8,-0.096910013,"Argentina","Puerto Madryn - dune",42.769,-64.101,"Angela",66,13,10.3,4.7,4.2,24.5,2.7,21.8,13.7,17,18.3,7.4,214,28,9,35,77,36,37,55,1.01,404,-1
32658,23,"Zygophyllum_sp","Zygophyllaceae","Shrub",0.4,-0.397940009,"Australia","Adelaide - Brookfield Chenopod",34.347,139.517,"Angela",99,16.2,13.4,5.1,4.5,30.7,4.8,25.9,11.1,21.8,22,10.4,276,31,15,23,84,49,51,80,2.14,773,-1
21604,61,"Panicum_decompositum","Poaceae","Herb",0.8,-0.096910013,"Australia","Townsville savanna",19.337,146.755,"Angela",79,23.9,9.9,5.2,3.1,31.7,12.9,18.8,27.1,20.3,27.3,19.4,1027,251,9,101,668,33,626,42,4.14,1012,-1
21891,56,"Patagonula_americana","Boraginaceae","Tree",24,1.380211242,"Argentina","Tucuman - Yungas North",23.747,-64.854,"Angela",737,19.8,12.9,5.2,3.9,30.7,6.2,24.5,23.4,14.4,24.2,14.4,793,162,4,89,455,20,439,20,2.42,476,-1
8053,9,"Chuquiraga_avellanedae","Asteraceae","Shrub",0.9,-0.045757491,"Argentina","Puerto Madryn - steppe",42.79,-64.092,"Angela",76,13,10.2,4.6,4.3,24.4,2.6,21.8,13.7,17,18.3,7.4,214,28,9,35,77,36,37,55,1.01,404,-1
26032,222,"Rhododendron_laponica","Ericaceae","Shrub",0.03,-1.522878745,"Greenland","Zackenberg - hill",74.476,-20.629,"Angela",83,-11.1,7,2.1,9.3,6,-26.5,32.5,-4.3,-7.4,1.7,-21.4,252,27,11,22,76,40,60,68,2.6,4,1
26775,28,"Ruschia_karrooica","Aizoaceae","Shrub",0.6,-0.22184875,"South Africa","Stellenbosch - Karoo",33.609,19.457,"Angela",394,16.5,13.8,5.4,4,29.6,4.4,25.2,11.3,21.4,21.4,11.3,546,87,14,60,253,48,48,253,1.51,557,-1
25295,144,"Quercus_calliprinos","Fagaceae","Shrub",4,0.602059991,"Israel","Hanadiv",32.555,34.938,"Angela",115,19.9,9.7,4.4,4.9,30.7,8.7,22,13.6,25.3,25.7,13.6,598,159,0,115,408,0,2,408,1.01,359,1
2994,12,"Anopterus_glandulosus","Escalloniaceae","Shrub",3.5,0.544068044,"Australia","Mt Field, Tasmania",42.679,146.669,"Angela",704,7.9,8.8,4.8,3.2,18.2,0,18.2,4.2,12,12,3.7,1156,117,54,20,347,200,200,322,2.96,643,-1
26028,213,"Rhododendron_palustre","Ericaceae","Shrub",0.2,-0.698970004,"USA","Alaska - 12 Mile",65.391,-145.854,"Angela",966,-6.4,11.2,2.1,15.1,20.6,-31.4,52,12.7,-15,12.7,-25.5,244,45,7,59,122,28,122,38,2.07,192,1
3962,111,"Ataenidia_conferta","Marantaceae","Herb",1.2,0.079181246,"Republic of Congo","Congo - bai",2.16,16.153,"Angela",403,24.8,10.5,8,0.6,31.6,18.5,13.1,24.4,24.8,25.6,24.1,1649,224,43,40,603,177,352,504,4.26,1648,1
11465,82,"Endiandra_monticola","Lauraceae","Tree",12,1.079181246,"Fiji","abrambi",16.956,179.069,"Laura",5,25.5,6.2,6.6,1.1,30.4,21.1,9.3,26.8,24,26.8,24,2462,356,83,45,1007,284,1007,284,4.26,1886,-1
229,46,"Acacia_karroo","Fabaceae - M","Shrub",1.6,0.204119983,"South Africa","Zululand - ledube",28.234,32.017,"Angela",289,20.5,10.2,5.8,2.4,28.5,11,17.5,23.4,17.2,23.4,17.2,926,129,32,43,347,104,344,104,3.35,525,-1
14874,95,"Gynerium_sagittatum","Poaceae","Herb",1.2,0.079181246,"Peru","Los Amigos - successional",12.566,-70.105,"Angela",217,24.8,10.5,7.3,1,31.4,17.2,14.2,25.5,23.2,25.6,23.2,3283,472,113,45,1313,383,1004,383,4.26,1475,-1
20816,19,"Neosparton_aphyllum","Verbenaceae","Shrub",1.2,0.079181246,"Argentina","Mendoza - Payunia",36.25,-68.824,"Angela",1502,10.9,16.3,5.2,5.5,27.7,-3.6,31.3,17.3,6.9,18,3.8,208,23,13,17,65,44,61,47,1.89,522,-1
18213,43,"Leucopogon_sp2","Ericaceae","Shrub",2.2,0.342422681,"Australia","Armidale - Goonoowigal",29.815,151.121,"Angela",686,15.3,14.5,4.9,5.3,29.3,0.1,29.2,21.8,8.2,21.8,8.2,780,105,37,33,287,133,287,133,3.26,1272,-1
25160,8,"Pultenaea_obcordata","Fabaceae - P","Shrub",3.2,0.505149978,"Australia","Huon Rd, Tasmania",42.921,147.275,"Angela",346,9.9,8.8,5,3,19.6,2.2,17.4,6.5,13.8,13.8,5.9,1037,115,63,17,311,205,205,296,2.82,743,-1
5681,58,"Calotis_hispidula","Asteraceae","Herb",0.2,-0.698970004,"Australia","Kunoth Paddock - Alice Springs",23.533,133.748,"Angela",713,20.4,16,4.8,6.1,36.3,3.1,33.2,26.6,14.2,27.5,12.1,310,41,11,42,121,40,121,46,1.01,605,-1
5478,214,"Calamagrostis_stricta","Poaceae","Herb",0.22,-0.657577319,"Greenland","Kangerlussuaq - wet",66.973,-50.569,"Angela",65,-5.1,8.2,2.3,10,14.1,-21.2,35.3,6.3,-13.7,8.1,-16.6,257,31,11,33,92,40,84,45,1.29,65,1
11775,194,"Erigeron_glaucus","Asteraceae","Herb",0.04,-1.397940009,"USA","Oregon - Yaquina Head",44.667,-124.072,"Angela",324,10.6,7.7,5,2.8,18.9,3.5,15.4,7.6,14,14.4,7.2,1936,315,27,62,900,133,134,848,2.51,572,1
227,138,"Acacia_berlandieri","Fabaceae - M","Shrub/Tree",6,0.77815125,"Mexico","Linares - thornscrub",24.786,-99.515,"Angela",354,22.6,13.9,4.8,5.1,36.2,7.6,28.6,26,15.6,28.5,15.6,803,154,20,66,338,68,285,68,2.26,1044,1
4619,217,"Betula_nana","Betulaceae","Shrub",0.8,-0.096910013,"Sweden","Abisko - forest",68.329,18.836,"Angela",521,-0.7,7,2.4,7.4,14.8,-13.7,28.5,8.3,-6.4,9.3,-9.7,422,64,18,39,168,62,158,85,1.24,61,1
230,48,"Acacia_nigrescens","Fabaceae - M","Shrub/Tree",9,0.954242509,"South Africa","Zululand - Mbuzane",28.221,31.794,"Angela",161,21,11,5.9,2.5,29.3,10.7,18.6,23.9,17.4,23.9,17.4,834,116,25,47,321,84,309,84,3.35,525,-1
16919,93,"Isoberlinia_angolensis","Fabaceae - C","Tree",8,0.903089987,"Zambia","Zambia - miombo",13.249,30.28,"Angela",1506,18.6,12.4,5.6,2.4,29.3,7.5,21.8,20.2,15,20.9,15,1099,270,0,118,790,0,383,0,2.51,684,-1
6019,20,"Carex_sp","Cyperaceae","Herb",0.4,-0.397940009,"Australia","Adelaide - Cox's scrub",35.341,138.74,"Angela",177,14.9,10,5.1,3.5,25.9,6.4,19.5,10.5,19.3,19.3,10.5,682,96,22,47,272,75,75,272,2.14,695,-1
21405,14,"Osmorhiza_chilensis","Apiaceae","Herb",0.35,-0.455931956,"Argentina","Bariloche",41.242,-71.425,"Angela",1039,7,11.7,5.1,4.2,20.3,-2.6,22.9,1.7,12.4,12.4,1.7,972,175,28,56,443,106,106,443,4.14,691,-1
23724,101,"Polyalthia_australis","Annonaceae","Tree",8,0.903089987,"Australia","Darwin - East point",12.406,130.82,"Angela",11,27.5,9.6,6.2,1.5,33.9,18.5,15.4,28.2,25.2,29.1,25.2,1663,428,1,106,1091,10,428,10,4.07,956,-1
29652,62,"Strychnos_lucida","Loganiaceae","Shrub",2,0.301029996,"Australia","Townsville Vine Thicket",19.332,146.773,"Angela",99,23.9,9.9,5.2,3.1,31.6,12.8,18.8,27,20.2,27.2,19.3,1036,253,9,101,674,33,631,43,4.14,1012,-1
23823,178,"Polygonum_ramosissimum","Polygonaceae","Herb",1,0,"USA","Indiana Dunes",41.617,-86.95,"Michelle",200,9.7,10.7,2.8,9.7,28.6,-9.5,38.1,21.6,-3.3,21.6,-3.3,976,104,44,23,299,165,299,165,3.26,1131,1
21584,27,"Panicum_simile","Poaceae","Herb",0.4,-0.397940009,"Australia","Kuringai Chase, Sydney",33.65,151.2,"Michelle",157,16.8,10,4.8,3.9,26.1,5.5,20.6,21.2,12.3,21.4,11.5,1283,157,63,29,450,208,385,279,4.14,1563,-1
8786,118,"Cordia_subcordata","Boraginaceae","Tree",10,1,NA,"Marshall Islands",9,168,"Laura",2,27.7,4.8,8.8,0.2,30.6,25.2,5.4,27.9,27.5,27.9,27.5,2585,300,82,34,870,305,855,405,NA,NA,1
12591,103,"Faramea_8383","Rubiaceae","Tree",15,1.176091259,"Peru","Manu",12.183,-70.55,"Angela",386,24.5,10.8,7.4,0.9,31.2,16.7,14.5,25.1,23.2,25.3,23.1,3015,416,99,45,1177,340,928,359,4.26,1405,-1
30532,54,"Thyridolepis_mitchelliana","Poaceae","Herb",0.3,-0.522878745,"Australia","Central Australia",23.8,133.833,"Michelle",553,20.9,16.3,4.8,6,37,3.6,33.4,28.1,14.8,28.1,12.8,278,37,9,42,109,35,109,42,1.32,756,-1
9843,69,"Cyperus_iria","Cyperaceae","Herb",0.6,-0.22184875,"Fiji","Viti Levu",17.8,178,"Laura",1108,19.3,6.3,5.8,1.5,25.3,14.6,10.7,21.1,17.4,21.1,17.3,3191,412,160,31,1136,521,1136,523,4.26,1795,-1
6899,123,"Casuarina_equisetifolia","Casuarinaceae","Tree",20,1.301029996,"Micronesia","Yap",9.5,138.167,"Laura",15,27.2,6.8,9.1,0.2,31.1,23.7,7.4,27.2,27.2,27.5,26.9,3031,368,144,31,1055,436,689,489,NA,NA,1
30429,107,"Thespesia_populnea","Malvaceae","Tree",8,0.903089987,"Papua New Guinea","Motupore Island",9.5,147.267,"Laura",30,26.8,8.3,7.6,0.8,32.5,21.6,10.9,27.5,25.7,27.7,25.6,1184,201,33,60,556,117,486,123,3.26,907,-1
10212,173,"Delphinium_nelsonii","Ranunculaceae","Herb",0.28,-0.552841969,"USA","Rockies",38.966,-106.987,"Angela",2966,0.2,16.9,4,8.6,21.3,-20.8,42.1,10.5,4,11,-10.8,526,53,30,16,148,105,134,144,2.24,339,1
12507,73,"Excoecaria_acuminata","Euphorbiaceae","Tree",7,0.84509804,"Fiji","ab",17.667,178.167,"Laura",312,23.5,6.3,6.2,1.3,28.9,18.8,10.1,25.1,21.7,25.1,21.7,2814,379,126,35,1027,413,1027,413,4.26,1795,-1
32237,81,"Weinmannia_richii","Cunoniaceae","Shrub/Tree",7,0.84509804,"Fiji","abt",17.081,179.069,"Laura",2,25.4,6.2,6.5,1.1,30.4,20.9,9.5,26.8,23.9,26.8,23.9,2494,362,88,44,1003,298,1003,298,4.26,1886,-1
8099,72,"Cinnamomum_degeneri","Lauraceae","Tree",18,1.255272505,"Fiji","ao",17.742,178.392,"Laura",47,24.8,6.3,6.3,1.3,30,20.1,9.9,26.1,23,26.3,23,2770,381,118,37,1006,391,1005,391,4.51,1864,-1
31032,55,"Triodia_brizioides","Poaceae","Herb",0.65,-0.187086643,"Australia","Alice - the gap",23.795,133.863,"Angela",701,20.9,16.3,4.8,6,37,3.6,33.4,28.1,14.8,28.1,12.7,278,37,9,42,109,35,109,42,1.32,756,-1
11189,78,"Elaeocarpus_storckii","Elaeocarpaceae","Tree",25,1.397940009,"Fiji","abo",17.356,178.675,"Laura",3,25,6.3,6.4,1.2,30.2,20.4,9.8,26.5,23.4,26.5,23.4,2664,384,103,40,1011,349,1011,349,4.51,1864,-1
18520,154,"Liriodendron_tulipifera","Magnoliaceae","Tree",60,1.77815125,"USA","Colorado",35.8,-89.9,"Angela",71,15.5,11.4,3.2,8.6,32.9,-2.6,35.5,15.6,21.5,26.1,3.8,1262,129,66,18,382,249,268,325,3.14,1266,1
9947,85,"Cypholophus_macrocephalus","Urticaceae","Shrub",3,0.477121255,"Fiji","b",16.583,179.242,"Laura",611,22.5,6.1,6.4,1.1,27.7,18.3,9.4,23.8,21,23.8,21,2865,383,111,40,1110,374,1110,374,4.5,1800,-1
8736,13,"Coprosma_robusta","Rubiaceae","Shrub",6,0.77815125,"New Zealand","Nelson",42,173,"Angela",1650,4.2,8.5,4.4,3.7,14.8,-4.4,19.2,-0.1,8.9,8.9,-0.7,2043,204,105,16,582,388,388,580,4.26,1102,-1
3943,80,"Astronidium_parviflorum","Melastomataceae","Shrub/Tree",12,1.079181246,"Fiji","abot",17.231,178.998,"Laura",2,25.4,6.2,6.5,1.1,30.4,20.9,9.5,26.8,23.9,26.8,23.9,2494,362,88,44,1003,298,1003,298,4.26,1886,-1
5650,122,"Calophyllum_longifolium","Clusiaceae","Tree",35,1.544068044,"Panama","BCI",9.167,-79.85,"Angela",94,26.3,6.7,7.3,0.7,31.2,22.1,9.1,25.7,26.4,27.3,25.5,2607,390,29,56,1026,138,407,705,4.51,2146,1
21542,70,"Palaquium_hornei","Sapotaceae","Tree",24,1.380211242,"Fiji","abk",17.783,178.508,"Laura",30,24.8,6.3,6.3,1.3,30.1,20.1,10,26.2,23.2,26.4,23,2803,390,117,37,1017,389,1013,393,4.51,1864,-1
11225,79,"Elatostema_humile","Urticaceae","Herb",0.4,-0.397940009,"Fiji","at",17.329,178.983,"Laura",2,25.2,6.2,6.4,1.2,30.2,20.6,9.6,26.6,23.6,26.6,23.6,2576,375,96,42,1003,325,1003,325,4.5,1800,-1
31667,174,"Vernonia_baldwinii","Asteraceae","Herb",0.442760943,-0.353830696,"USA","Kansas",39.083,-96.583,"Angela",407,12,12.7,3,10,32.3,-9.1,41.4,22.1,-1.4,24.5,-1.4,872,137,20,51,355,71,326,71,4.14,1414,1
11467,77,"Endiandra_luteola","Lauraceae","Tree",30,1.477121255,"Fiji","aot",17.447,178.917,"Laura",97,24.6,6.2,6.3,1.2,29.8,20.1,9.7,26.1,23,26.1,23,2660,382,103,41,1023,345,1023,345,4.5,1800,-1
21543,71,"Palaquium_fidjiense","Sapotaceae","Tree",30,1.477121255,"Fiji","abko",17.758,178.577,"Laura",13,24.9,6.3,6.3,1.3,30.1,20.1,10,26.5,23.3,26.5,23.2,2767,390,113,38,1012,379,1012,381,4.51,1864,-1
1711,164,"Adenostoma_fasciculatum","Rosaceae","Shrub",3,0.477121255,"USA","Jasper Ridge - Chaparral",37.4,-122.233,"Angela",150,13.8,11.3,5.5,3.3,24.2,4,20.2,9.6,17.7,18.1,9.6,598,120,2,87,311,9,13,311,1.51,223,1
12182,51,"Eugenia_uniflora","Myrtaceae","Tree",10,1,"Argentina","Tucuman - Yungas South",26.763,-65.333,"Angela",935,18.6,11.5,4.8,4.2,29.8,6,23.8,23.6,14.6,23.6,12.9,882,184,10,82,472,33,472,34,1.51,596,-1
26391,212,"Rosa_acicularis","Rosaceae","Shrub",0.8,-0.096910013,"USA","Alaska campus",64.86,-147.862,"Angela",688,-2.9,10.9,2.2,14.1,22.4,-26.7,49.1,14.7,-10.5,14.7,-21,301,54,8,57,144,31,144,47,2.51,317,1
16328,159,"Ilex_montana","Aquifoliaceae","Shrub",5,0.698970004,"USA","Twin springs, Virginia",36.817,-82.464,"Angela",501,12.7,13,3.8,7.8,29.6,-4.5,34.1,20.6,13.4,22.4,2.3,1121,117,71,12,322,240,310,265,4.07,1325,1
21779,143,"Parkinsonia_microphylla","Fabaceae - C","Shrub",3.5,0.544068044,"USA","Tucson - Sonoran desert",32.31,-110.739,"Angela",971,18.9,15.7,4.6,6.9,36.3,2.5,33.8,27.2,22.2,27.9,10.4,380,71,6,61,176,24,144,98,1.01,477,1
1402,193,"Acer_macryophyllum","Sapindaceae","Tree",28,1.447158031,"USA","Oregon - McDun",44.6,-123.334,"Angela",179,10.8,11.8,4.4,5.2,27,0.3,26.7,4.9,17.4,17.6,4.5,1208,217,13,69,601,68,75,560,2.51,572,1
12100,37,"Eucalyptus_marginata","Myrtaceae","Tree",22,1.342422681,"Australia","Perth - Darling Scarp",32.02,116.044,"Angela",209,17,11.2,4.6,4.5,31.2,7.2,24,11.7,22.7,23.1,11.7,1003,213,13,85,566,50,54,566,1.93,708,-1
32697,38,"Adenanthos_cygnorum","Proteaceae","Tree",7,0.84509804,"Australia","Perth - Melaleuca Park",31.689,115.886,"Angela",60,18.3,11.5,4.9,4.1,31.7,8.5,23.2,13.5,23.5,23.9,13.5,762,160,8,84,426,33,39,426,1.51,575,-1
12029,104,"Eucalyptus_nesophila","Myrtaceae","Tree",25,1.397940009,NA,"Melville Island",11.5,130.967,"Angela",44,27.1,9.4,6.3,1.4,33.2,18.5,14.7,27.7,24.8,28.5,24.8,1664,355,2,100,1032,12,453,12,4.04,969,-1
20085,137,"Mimosa_monancistra","Fabaceae - M","Shrub",3,0.477121255,"Mexico","Linares - Puenta Viejo",24.749,-99.799,"Angela",736,20.7,14.3,5.5,4,32.9,7.2,25.7,23.5,15.2,25.4,15.2,703,149,14,71,325,54,268,54,2.26,844,1
24129,215,"Potentilla_nivea","Rosaceae","Herb",0.05,-1.301029996,"Greenland","Kangerlussuaq - dry",66.973,-50.568,"Angela",75,-5.1,8.2,2.3,10,14.1,-21.2,35.3,6.3,-13.7,8.1,-16.6,257,31,11,33,92,40,84,45,1.29,65,1
32312,15,"Xanthorrhoea_sp2","Xanthorrhoeaceae","Shrub",4,0.602059991,"Australia","Green's Bush - Melbourne",38.43,144.922,"Angela",165,13.5,7.5,4.5,3.2,22.8,6.2,16.6,10.2,17.6,17.6,9.5,915,101,45,25,289,150,150,287,4.04,1023,-1
26027,211,"Rhododendron_palustre","Ericaceae","Shrub",1,0,"USA","Alaska - Bonanza",64.769,-148.283,"Angela",382,-4.3,10.7,2.2,13.9,21,-27.1,48.1,13.2,-12.1,13.2,-21.9,296,57,7,68,157,28,157,41,2.51,363,1
19248,30,"Macrozamia_communis","Zamiaceae","Shrub",1.7,0.230448921,"Australia","Kuringai - Diatreme",33.578,151.292,"Angela",188,17,9.7,4.8,3.8,26.1,5.9,20.2,21.4,12.6,21.5,11.9,1307,159,64,29,455,212,391,280,4.51,1435,-1
26164,3,"Ribes_magellanicum","Grossulariaceae","Shrub",1.8,0.255272505,"Argentina","Rio Turbio - Nothofagus",51.578,-72.315,"Angela",702,3.7,9.7,4.9,3.6,14,-5.6,19.6,3.5,4.2,8,-1.2,500,57,34,15,152,106,120,122,1.26,30,-1
8167,151,"Cistus_salvifolius","Cistaceae","Shrub",1,0,"Israel","Adulam",34.935,34.935,"Angela",358,4.8,7.1,2.2,8.7,21.8,-10.2,32,10.6,-5.7,16.1,-6.3,599,77,26,34,217,90,185,105,1.01,386,1
30395,61,"Themeda_triandra","Poaceae","Herb",0.8,-0.096910013,"Australia","Townsville savanna",19.337,146.755,"Angela",79,23.9,9.9,5.2,3.1,31.7,12.9,18.8,27.1,20.3,27.3,19.4,1027,251,9,101,668,33,626,42,4.14,1012,-1
24867,94,"Pseudolmedia_laevis","Moraceae","Tree",19,1.278753601,"Peru","Los Amigos floodplain",12.567,-70.093,"Angela",217,24.9,10.5,7.4,1,31.5,17.4,14.1,25.6,23.3,25.7,23.3,3273,471,113,46,1310,381,1001,381,4.26,1475,-1
3998,23,"Atriplex_stipitata","Amaranthaceae","Shrub",0.5,-0.301029996,"Australia","Adelaide - Brookfield Chenopod",34.347,139.517,"Angela",99,16.2,13.4,5.1,4.5,30.7,4.8,25.9,11.1,21.8,22,10.4,276,31,15,23,84,49,51,80,2.14,773,-1
2356,100,"Alloteropsis_semialata","Poaceae","Herb",2,0.301029996,"Australia","Howard Springs, Darwin",12.494,131.108,"Angela",26,27.3,10.5,6,1.7,34.6,17.2,17.4,28.1,24.7,29.2,24.7,1505,371,1,104,970,7,408,7,4.07,956,-1
31438,222,"Vaccinium_uliginosum","Ericaceae","Shrub",0.04,-1.397940009,"Greenland","Zackenberg - hill",74.476,-20.629,"Angela",83,-11.1,7,2.1,9.3,6,-26.5,32.5,-4.3,-7.4,1.7,-21.4,252,27,11,22,76,40,60,68,2.6,4,1
9244,28,"Crassula_rupestris","Crassulaceae","Shrub",0.6,-0.22184875,"South Africa","Stellenbosch - Karoo",33.609,19.457,"Angela",394,16.5,13.8,5.4,4,29.6,4.4,25.2,11.3,21.4,21.4,11.3,546,87,14,60,253,48,48,253,1.51,557,-1
3972,12,"Atherosperma_moschatum","Atherospermataceae","Tree",28,1.447158031,"Australia","Mt Field, Tasmania",42.679,146.669,"Angela",704,7.9,8.8,4.8,3.2,18.2,0,18.2,4.2,12,12,3.7,1156,117,54,20,347,200,200,322,2.96,643,-1
23552,10,"Poa_lanuginosa","Poaceae","Herb",0.35,-0.455931956,"Argentina","Puerto Madryn - dune",42.769,-64.101,"Angela",66,13,10.3,4.7,4.2,24.5,2.7,21.8,13.7,17,18.3,7.4,214,28,9,35,77,36,37,55,1.01,404,-1
9773,46,"Cymbopogon_excavatus","Poaceae","Herb",0.5,-0.301029996,"South Africa","Zululand - ledube",28.234,32.017,"Angela",289,20.5,10.2,5.8,2.4,28.5,11,17.5,23.4,17.2,23.4,17.2,926,129,32,43,347,104,344,104,3.35,525,-1
11379,4,"Empetrum_rubrum","Ericaceae","Shrub",0.11,-0.958607315,"Argentina","Rio Turbio - heath",51.575,-72.312,"Angela",747,3.7,9.7,4.9,3.6,14,-5.6,19.6,3.5,4.2,8,-1.2,500,57,34,15,152,106,120,122,1.26,30,-1
4334,29,"Banksia_ericifolia","Proteaceae","Shrub",2.6,0.414973348,"Australia","Kuringai - Challenger",33.595,151.276,"Angela",151,16.9,9.8,4.8,3.8,26,5.7,20.3,21.3,12.4,21.4,11.7,1313,160,65,29,458,213,392,283,4.51,1435,-1
30143,65,"Tapeinosperma_ampliflorum","Myrsinaceae","Tree",10,1,"Fiji","ak",18.383,178.142,"Laura",30,24.6,6.3,6.1,1.4,30,19.7,10.3,26,22.9,26.3,22.7,2674,345,132,32,943,414,925,431,4.26,1795,-1
6852,221,"Cassiope_tetragona","Ericaceae","Shrub",0.07,-1.15490196,"Greenland","Zackenberg - salix",74.474,-20.536,"Angela",37,-10.5,7,2.1,9.3,6.5,-25.8,32.3,-3.7,-6.8,2.3,-20.7,236,26,10,24,73,36,57,63,2.6,4,1
13307,194,"Gaultheria_shallon","Ericaceae","Shrub",0.7,-0.15490196,"USA","Oregon - Yaquina Head",44.667,-124.072,"Angela",324,10.6,7.7,5,2.8,18.9,3.5,15.4,7.6,14,14.4,7.2,1936,315,27,62,900,133,134,848,2.51,572,1
17812,165,"Lasthenia_californica","Asteraceae","Herb",0.08,-1.096910013,"USA","Jasper Ridge - Serpentine",37.4,-122.224,"Angela",179,13.7,11.4,5.5,3.3,24.4,4,20.4,9.6,17.7,18,9.6,630,127,2,86,328,9,13,328,1.51,223,1
12933,203,"Fraxinus_excelsior","Oleaceae","Tree",19,1.278753601,"Sweden","Stockholm",58.953,17.61,"Angela",10,7,6.5,2.4,7.1,21.8,-4.8,26.6,15.3,1,16.4,-1.7,508,61,24,28,172,81,162,112,2.79,533,1
4617,214,"Betula_nana","Betulaceae","Shrub",0.3,-0.522878745,"Greenland","Kangerlussuaq - wet",66.973,-50.569,"Angela",65,-5.1,8.2,2.3,10,14.1,-21.2,35.3,6.3,-13.7,8.1,-16.6,257,31,11,33,92,40,84,45,1.29,65,1
29610,9,"Stipa_tenuis","Poaceae","Herb",0.03,-1.522878745,"Argentina","Puerto Madryn - steppe",42.79,-64.092,"Angela",76,13,10.2,4.6,4.3,24.4,2.6,21.8,13.7,17,18.3,7.4,214,28,9,35,77,36,37,55,1.01,404,-1
25615,138,"Randia_laevigata","Rubiaceae","Shrub",3.5,0.544068044,"Mexico","Linares - thornscrub",24.786,-99.515,"Angela",354,22.6,13.9,4.8,5.1,36.2,7.6,28.6,26,15.6,28.5,15.6,803,154,20,66,338,68,285,68,2.26,1044,1
21930,220,"Pedicularis_lapponica","Orobanchaceae","Herb",0.2,-0.698970004,"Greenland","disko island",69.25,-53.6,"Angela",150,-5.7,5.5,1.8,8,8.3,-20.7,29,1.2,-16.2,4.3,-16.2,305,38,16,30,106,52,87,52,1.01,32,1
5544,144,"Calicotome_villosa","Fabaceae - P","Shrub",1.8,0.255272505,"Israel","Hanadiv",32.555,34.938,"Angela",115,19.9,9.7,4.4,4.9,30.7,8.7,22,13.6,25.3,25.7,13.6,598,159,0,115,408,0,2,408,1.01,359,1
18104,21,"Leptospermum_continentale","Myrtaceae","Shrub",2.8,0.447158031,"Australia","Adelaide - ferries",35.235,139.132,"Angela",52,15.6,11.7,5.3,3.7,27.8,5.8,22,10.9,20.2,20.3,10.9,384,45,18,29,127,59,60,127,2.17,661,-1
29608,19,"Stipa_sp","Poaceae","Herb",0.35,-0.455931956,"Argentina","Mendoza - Payunia",36.25,-68.824,"Angela",1502,10.9,16.3,5.2,5.5,27.7,-3.6,31.3,17.3,6.9,18,3.8,208,23,13,17,65,44,61,47,1.89,522,-1
15864,121,"Hirtella_triandra","Chrysobalanaceae","Tree",23.5,1.371067862,"Panama","Panama - BCI",9.15,-79.849,"Angela",165,26.5,6.8,7.3,0.7,31.4,22.2,9.2,25.8,26.6,27.5,25.6,2542,383,27,56,1004,132,397,975,4.51,2146,1
21605,93,"Panicum_sp","Poaceae","Herb",0.5,-0.301029996,"Zambia","Zambia - miombo",13.249,30.28,"Angela",1506,18.6,12.4,5.6,2.4,29.3,7.5,21.8,20.2,15,20.9,15,1099,270,0,118,790,0,383,0,2.51,684,-1
31434,216,"Vaccinium_vitis-idaea","Ericaceae","Shrub",0.06,-1.22184875,"Sweden","Abisko - Paddus",68.324,18.843,"Angela",554,-1,7,2.4,7.5,14.6,-14.1,28.7,8.1,-6.7,9.1,-10.1,436,66,19,38,172,65,162,89,1.24,61,1
31297,163,"Umbellularia_californica","Lauraceae","Tree",25,1.397940009,"USA","Jasper Ridge - Oak forest",37.4,-122.236,"Angela",84,13.8,11.2,5.5,3.3,24.1,4,20.1,9.6,17.7,18,9.6,603,121,2,86,313,9,13,313,1.51,223,1
25016,8,"Pteridium_esculentum","Dennstaedtiaceae","Fern",1.6,0.204119983,"Australia","Huon Rd, Tasmania",42.921,147.275,"Angela",346,9.9,8.8,5,3,19.6,2.2,17.4,6.5,13.8,13.8,5.9,1037,115,63,17,311,205,205,296,2.82,743,-1
5607,43,"Callitris_endlicheri","Cupressaceae","Tree",18,1.255272505,"Australia","Armidale - Goonoowigal",29.815,151.121,"Angela",686,15.3,14.5,4.9,5.3,29.3,0.1,29.2,21.8,8.2,21.8,8.2,780,105,37,33,287,133,287,133,3.26,1272,-1
31435,217,"Vaccinium_vitis-idaea","Ericaceae","Shrub",0.2,-0.698970004,"Sweden","Abisko - forest",68.329,18.836,"Angela",521,-0.7,7,2.4,7.4,14.8,-13.7,28.5,8.3,-6.4,9.3,-9.7,422,64,18,39,168,62,158,85,1.24,61,1
3484,178,"Aristida_purpurascens","Poaceae","Herb",0.5,-0.301029996,"USA","Indiana Dunes",41.617,-86.95,"Michelle",200,9.7,10.7,2.8,9.7,28.6,-9.5,38.1,21.6,-3.3,21.6,-3.3,976,104,44,23,299,165,299,165,3.26,1131,1
20160,27,"Mirbelia_speciosa","Fabaceae - P","Shrub",1,0,"Australia","Kuringai Chase, Sydney",33.65,151.2,"Michelle",157,16.8,10,4.8,3.9,26.1,5.5,20.6,21.2,12.3,21.4,11.5,1283,157,63,29,450,208,385,279,4.14,1563,-1
30765,103,"Trichilia_quadrijuga","Meliaceae","Tree",3,0.477121255,"Peru","Manu",12.183,-70.55,"Angela",386,24.5,10.8,7.4,0.9,31.2,16.7,14.5,25.1,23.2,25.3,23.1,3015,416,99,45,1177,340,928,359,4.26,1405,-1
175,54,"Acacia_victoriae","Fabaceae - M","Shrub",4,0.602059991,"Australia","Central Australia",23.8,133.833,"Michelle",553,20.9,16.3,4.8,6,37,3.6,33.4,28.1,14.8,28.1,12.8,278,37,9,42,109,35,109,42,1.32,756,-1
17887,69,"Lawsonia_inermis","Lythraceae","Shrub/Tree",6,0.77815125,"Fiji","Viti Levu",17.8,178,"Laura",1108,19.3,6.3,5.8,1.5,25.3,14.6,10.7,21.1,17.4,21.1,17.3,3191,412,160,31,1136,521,1136,523,4.26,1795,-1
16579,106,"Inocarpus_fagifer","Fabaceae - P","Tree",30,1.477121255,"Australia","Christmas Island",10.417,105.667,"Laura",2,26.4,5,7.4,0.6,29.9,23.2,6.7,26.8,25.7,27.1,25.5,1704,309,16,66,806,92,659,135,4.51,2296,-1
16578,123,"Inocarpus_fagifer","Fabaceae - P","Tree",20,1.301029996,"Micronesia","Yap",9.5,138.167,"Laura",15,27.2,6.8,9.1,0.2,31.1,23.7,7.4,27.2,27.2,27.5,26.9,3031,368,144,31,1055,436,689,489,NA,NA,1
11028,86,"Dysoxylum_papuanum","Meliaceae","Tree",27.5,1.439332694,"Australia","Cairns - Daintree canopy crane",16.103,145.446,"Angela",263,25.2,8.3,5.8,2.1,31.9,17.8,14.1,27.2,22.8,27.5,22.3,2087,459,26,93,1294,92,1031,108,4.04,908,-1
9837,118,"Cyperus_javanicus","Cyperaceae","Herb",1,0,NA,"Marshall Islands",9,168,"Laura",2,27.7,4.8,8.8,0.2,30.6,25.2,5.4,27.9,27.5,27.9,27.5,2585,300,82,34,870,305,855,405,NA,NA,1
14664,107,"Grewia_sp1","Malvaceae","Tree",7,0.84509804,"Papua New Guinea","Motupore Island",9.5,147.267,"Laura",30,26.8,8.3,7.6,0.8,32.5,21.6,10.9,27.5,25.7,27.7,25.6,1184,201,33,60,556,117,486,123,3.26,907,-1
24459,81,"Pouteria_umbonata","Sapotaceae","Tree",25,1.397940009,"Fiji","abt",17.081,179.069,"Laura",2,25.4,6.2,6.5,1.1,30.4,20.9,9.5,26.8,23.9,26.8,23.9,2494,362,88,44,1003,298,1003,298,4.26,1886,-1
20063,73,"Microstegium_glabratum","Poaceae","Herb",0.5,-0.301029996,"Fiji","ab",17.667,178.167,"Laura",312,23.5,6.3,6.2,1.3,28.9,18.8,10.1,25.1,21.7,25.1,21.7,2814,379,126,35,1027,413,1027,413,4.26,1795,-1
13899,85,"Glochidion_multilobum","Phyllanthaceae","Shrub/Tree",4,0.602059991,"Fiji","b",16.583,179.242,"Laura",611,22.5,6.1,6.4,1.1,27.7,18.3,9.4,23.8,21,23.8,21,2865,383,111,40,1110,374,1110,374,4.5,1800,-1
2473,72,"Alpinia_homeana","Zingiberaceae","Herb",7.5,0.875061263,"Fiji","ao",17.742,178.392,"Laura",47,24.8,6.3,6.3,1.3,30,20.1,9.9,26.1,23,26.3,23,2770,381,118,37,1006,391,1005,391,4.51,1864,-1
23737,80,"Polyalthia_vitiensis","Annonaceae","Tree",20,1.301029996,"Fiji","abot",17.231,178.998,"Laura",2,25.4,6.2,6.5,1.1,30.4,20.9,9.5,26.8,23.9,26.8,23.9,2494,362,88,44,1003,298,1003,298,4.26,1886,-1
22886,154,"Pinus_echinata","Pinaceae","Tree",40,1.602059991,"USA","Colorado",35.8,-89.9,"Angela",71,15.5,11.4,3.2,8.6,32.9,-2.6,35.5,15.6,21.5,26.1,3.8,1262,129,66,18,382,249,268,325,3.14,1266,1
8735,13,"Coprosma_australis","Rubiaceae","Shrub",7,0.84509804,"New Zealand","Nelson",42,173,"Angela",1650,4.2,8.5,4.4,3.7,14.8,-4.4,19.2,-0.1,8.9,8.9,-0.7,2043,204,105,16,582,388,388,580,4.26,1102,-1
31941,173,"Viola_nuttallii","Violaceae","Herb",0.121,-0.91721463,"USA","Rockies",38.966,-106.987,"Angela",2966,0.2,16.9,4,8.6,21.3,-20.8,42.1,10.5,4,11,-10.8,526,53,30,16,148,105,134,144,2.24,339,1
23946,78,"Polyscias_joskei","Araliaceae","Tree",10,1,"Fiji","abo",17.356,178.675,"Laura",3,25,6.3,6.4,1.2,30.2,20.4,9.8,26.5,23.4,26.5,23.4,2664,384,103,40,1011,349,1011,349,4.51,1864,-1
20016,79,"Microcos_vitiensis","Malvaceae","Tree",18,1.255272505,"Fiji","at",17.329,178.983,"Laura",2,25.2,6.2,6.4,1.2,30.2,20.6,9.6,26.6,23.6,26.6,23.6,2576,375,96,42,1003,325,1003,325,4.5,1800,-1
12042,55,"Eucalyptus_gamophylla","Myrtaceae","Shrub",5.5,0.740362689,"Australia","Alice - the gap",23.795,133.863,"Angela",701,20.9,16.3,4.8,6,37,3.6,33.4,28.1,14.8,28.1,12.7,278,37,9,42,109,35,109,42,1.32,756,-1
24621,122,"Protium_panamense","Burseraceae","Tree",15,1.176091259,"Panama","BCI",9.167,-79.85,"Angela",94,26.3,6.7,7.3,0.7,31.2,22.1,9.1,25.7,26.4,27.3,25.5,2607,390,29,56,1026,138,407,705,4.51,2146,1
27208,174,"Salvia_azurea","Lamiaceae","Herb",0.687248322,-0.162886312,"USA","Kansas",39.083,-96.583,"Angela",407,12,12.7,3,10,32.3,-9.1,41.4,22.1,-1.4,24.5,-1.4,872,137,20,51,355,71,326,71,4.14,1414,1
22363,70,"Phaleria_montana","Thymelaeaceae","Shrub/Tree",20,1.301029996,"Fiji","abk",17.783,178.508,"Laura",30,24.8,6.3,6.3,1.3,30.1,20.1,10,26.2,23.2,26.4,23,2803,390,117,37,1017,389,1013,393,4.51,1864,-1
32737,159,"Castanea_dentata","Fagaceae","Tree",9,0.954242509,"USA","Twin springs, Virginia",36.817,-82.464,"Angela",501,12.7,13,3.8,7.8,29.6,-4.5,34.1,20.6,13.4,22.4,2.3,1121,117,71,12,322,240,310,265,4.07,1325,1
9427,77,"Crotalaria_retusa","Fabaceae - P","Herb/Shrub",1,0,"Fiji","aot",17.447,178.917,"Laura",97,24.6,6.2,6.3,1.2,29.8,20.1,9.7,26.1,23,26.1,23,2660,382,103,41,1023,345,1023,345,4.5,1800,-1
12028,104,"Eucalyptus_miniata","Myrtaceae","Tree",30,1.477121255,NA,"Melville Island",11.5,130.967,"Angela",44,27.1,9.4,6.3,1.4,33.2,18.5,14.7,27.7,24.8,28.5,24.8,1664,355,2,100,1032,12,453,12,4.04,969,-1
12057,30,"Eucalyptus_sp3","Myrtaceae","Tree",30,1.477121255,"Australia","Kuringai - Diatreme",33.578,151.292,"Angela",188,17,9.7,4.8,3.8,26.1,5.9,20.2,21.4,12.6,21.5,11.9,1307,159,64,29,455,212,391,280,4.51,1435,-1
10144,29,"Darwinia_fascicularis","Myrtaceae","Shrub",1.6,0.204119983,"Australia","Kuringai - Challenger",33.595,151.276,"Angela",151,16.9,9.8,4.8,3.8,26,5.7,20.3,21.3,12.4,21.4,11.7,1313,160,65,29,458,213,392,283,4.51,1435,-1
9417,65,"Crossostylis_seemannii","Rhizophoraceae","Shrub/Tree",10,1,"Fiji","ak",18.383,178.142,"Laura",30,24.6,6.3,6.1,1.4,30,19.7,10.3,26,22.9,26.3,22.7,2674,345,132,32,943,414,925,431,4.26,1795,-1
4767,71,"Bleasdalea_vitiensis","Proteaceae","Tree",28,1.447158031,"Fiji","abko",17.758,178.577,"Laura",13,24.9,6.3,6.3,1.3,30.1,20.1,10,26.5,23.3,26.5,23.2,2767,390,113,38,1012,379,1012,381,4.51,1864,-1
